[
{
"id": "rus_jan_strike_1905",
"title": "Январская забастовка и Кровавое воскресенье",
"year": 1905,
"country": "Россия",
"century": 20,
"description": "Массовая забастовка в Петербурге, завершившаяся расстрелом мирной демонстрации рабочих у Зимнего дворца.",
"participants": ["Гапон", "Николай II"],
"lat": 59.9343,
"lng": 30.3351,
"difficulty": "medium"
},
{
"id": "potemkin_mutiny",
"title": "Восстание на броненосце «Потёмкин»",
"year": 1905,
"country": "Россия",
"century": 20,
"description": "Мятеж матросов чёрноморского флота, ставший символом революции 1905 года.",
"participants": ["Матюшенко", "Трепов"],
"lat": 44.6167,
"lng": 33.5250,
"difficulty": "hard"
},
{
"id": "ww1_start",
"title": "Начало Первой мировой войны",
"year": 1914,
"country": "Австро-Венгрия",
"century": 20,
"description": "Австро-Венгрия объявила войну Сербии после убийства эрцгерцога Франца Фердинанда.",
"participants": ["Франц Иосиф I", "Никола Пашич", "Гаврило Принцип"],
"lat": 48.2082,
"lng": 16.3738,
"difficulty": "easy"
},
{
"id": "brusilov_offensive",
"title": "Брусиловский прорыв",
"year": 1916,
"country": "Россия",
"century": 20,
"description": "Крупнейшая победа русской армии в Первой мировой войне под командованием генерала Брусилова.",
"participants": ["Брусилов", "Николай II"],
"lat": 48.9226,
"lng": 24.7111,
"difficulty": "medium"
},
{
"id": "feb_revolution",
"title": "Февральская революция",
"year": 1917,
"country": "Россия",
"century": 20,
"description": "Свержение монархии и отречение Николая II.",
"participants": ["Керенский", "Николай II", "Родзянко"],
"lat": 59.9343,
"lng": 30.3351,
"difficulty": "easy"
},
{
"id": "oct_revolution",
"title": "Октябрьская революция",
"year": 1917,
"country": "Россия",
"century": 20,
"description": "Вооружённое восстание большевиков, свергнувшее Временное правительство.",
"participants": ["Ленин", "Троцкий", "Керенский"],
"lat": 59.9343,
"lng": 30.3351,
"difficulty": "medium"
},
{
"id": "rus_civil_war_start",
"title": "Начало Гражданской войны в России",
"year": 1918,
"country": "Россия",
"century": 20,
"description": "Вооружённое противостояние между Красной и Белой армиями.",
"participants": ["Ленин", "Деникин", "Колчак"],
"lat": 55.7558,
"lng": 37.6176,
"difficulty": "medium"
},
{
"id": "ussr_creation",
"title": "Образование СССР",
"year": 1922,
"country": "СССР",
"century": 20,
"description": "Подписание Договора об образовании СССР.",
"participants": ["Ленин", "Сталин", "Зиновьев"],
"lat": 55.7558,
"lng": 37.6176,
"difficulty": "easy"
},
{
"id": "stalin_industrialization",
"title": "Индустриализация в СССР",
"year": 1928,
"country": "СССР",
"century": 20,
"description": "Массовое строительство заводов и фабрик по плану ГОЭЛРО.",
"participants": ["Сталин", "Куйбышев"],
"lat": 55.7558,
"lng": 37.6176,
"difficulty": "medium"
},
{
"id": "collectivization",
"title": "Коллективизация сельского хозяйства",
"year": 1929,
"country": "СССР",
"century": 20,
"description": "Насильственное объединение крестьянских хозяйств в колхозы.",
"participants": ["Сталин", "Молотов"],
"lat": 55.7558,
"lng": 37.6176,
"difficulty": "medium"
},
{
"id": "great_purge_start",
"title": "Начало Большого террора",
"year": 1936,
"country": "СССР",
"century": 20,
"description": "Массовые репрессии против партийных и военных деятелей.",
"participants": ["Сталин", "Ежов", "Бухарин"],
"lat": 55.7558,
"lng": 37.6176,
"difficulty": "hard"
},
{
"id": "ww2_start",
"title": "Начало Второй мировой войны",
"year": 1939,
"country": "Польша",
"century": 20,
"description": "Германия напала на Польшу 1 сентября 1939 года.",
"participants": ["Гитлер", "Черчилль", "Сталин"],
"lat": 52.2297,
"lng": 21.0122,
"difficulty": "easy"
},
{
"id": "molotov_ribbentrop_pact",
"title": "Пакт Молотова–Риббентропа",
"year": 1939,
"country": "СССР",
"century": 20,
"description": "Договор о ненападении между СССР и Германией.",
"participants": ["Молотов", "Риббентроп"],
"lat": 55.7558,
"lng": 37.6176,
"difficulty": "medium"
},
{
"id": "winter_war",
"title": "Советско-финская война",
"year": 1939,
"country": "Финляндия",
"century": 20,
"description": "Вооружённый конфликт между СССР и Финляндией.",
"participants": ["Сталин", "Маннергейм"],
"lat": 60.1699,
"lng": 24.9384,
"difficulty": "medium"
},
{
"id": "barbarossa_start",
"title": "Операция «Барбаросса»",
"year": 1941,
"country": "СССР",
"century": 20,
"description": "Начало Великой Отечественной войны — нападение Германии на СССР.",
"participants": ["Гитлер", "Сталин", "Жуков"],
"lat": 55.7558,
"lng": 37.6176,
"difficulty": "easy"
},
{
"id": "leningrad_blockade",
"title": "Блокада Ленинграда",
"year": 1941,
"country": "СССР",
"century": 20,
"description": "872-дневная осада Ленинграда немецкими войсками.",
"participants": ["Жуков", "Ленинградцы"],
"lat": 59.9343,
"lng": 30.3351,
"difficulty": "hard"
},
{
"id": "moscow_battle",
"title": "Битва за Москву",
"year": 1941,
"country": "СССР",
"century": 20,
"description": "Первое крупное поражение вермахта в Великой Отечественной войне.",
"participants": ["Жуков", "Гитлер"],
"lat": 55.7558,
"lng": 37.6176,
"difficulty": "medium"
},
{
"id": "stalingrad_battle",
"title": "Битва за Сталинград",
"year": 1942,
"country": "СССР",
"century": 20,
"description": "Крупнейшее сражение Второй мировой войны, переломный момент.",
"participants": ["Чуйков", "Паулюс", "Жуков"],
"lat": 48.7080,
"lng": 44.5133,
"difficulty": "easy"
},
{
"id": "kursk_battle",
"title": "Курская битва",
"year": 1943,
"country": "СССР",
"century": 20,
"description": "Крупнейшее танковое сражение в истории.",
"participants": ["Рокоссовский", "Манштейн", "Жуков"],
"lat": 51.7373,
"lng": 36.1874,
"difficulty": "medium"
},
{
"id": "yalta_conference",
"title": "Ялтинская конференция",
"year": 1945,
"country": "СССР",
"century": 20,
"description": "Встреча «Большой тройки» для решения послевоенного устройства мира.",
"participants": ["Сталин", "Рузвельт", "Черчилль"],
"lat": 44.4986,
"lng": 34.1611,
"difficulty": "medium"
},
{
"id": "victory_day",
"title": "День Победы",
"year": 1945,
"country": "СССР",
"century": 20,
"description": "Капитуляция нацистской Германии и победа СССР в Великой Отечественной войне.",
"participants": ["Сталин", "Жуков", "Трумэн"],
"lat": 55.7558,
"lng": 37.6176,
"difficulty": "easy"
},
{
"id": "hiroshima_bombing",
"title": "Атомная бомбардировка Хиросимы",
"year": 1945,
"country": "Япония",
"century": 20,
"description": "Первое применение ядерного оружия в истории.",
"participants": ["Трумэн", "Хирото Сигэру"],
"lat": 34.3853,
"lng": 132.4553,
"difficulty": "easy"
},
{
"id": "un_creation",
"title": "Создание ООН",
"year": 1945,
"country": "США",
"century": 20,
"description": "Учреждение Организации Объединённых Наций.",
"participants": ["Рузвельт", "Черчилль", "Сталин"],
"lat": 40.7128,
"lng": -74.0060,
"difficulty": "medium"
},
{
"id": "cold_war_start",
"title": "Начало Холодной войны",
"year": 1947,
"country": "США",
"century": 20,
"description": "Противостояние между СССР и США без прямого военного конфликта.",
"participants": ["Сталин", "Трумэн", "Черчилль"],
"lat": 38.8951,
"lng": -77.0369,
"difficulty": "medium"
},
{
"id": "ussr_atom_bomb",
"title": "Испытание первой советской атомной бомбы",
"year": 1949,
"country": "СССР",
"century": 20,
"description": "СССР стал второй ядерной державой.",
"participants": ["Сталин", "Курчатов"],
"lat": 50.4501,
"lng": 87.1000,
"difficulty": "hard"
},
{
"id": "korean_war_start",
"title": "Начало Корейской войны",
"year": 1950,
"country": "Корея",
"century": 20,
"description": "Вооружённый конфликт между Северной и Южной Кореей.",
"participants": ["Ким Ир Сен", "Сынман Ри", "Макартур"],
"lat": 38.3000,
"lng": 126.5000,
"difficulty": "medium"
},
{
"id": "stalin_death",
"title": "Смерть Иосифа Сталина",
"year": 1953,
"country": "СССР",
"century": 20,
"description": "Конец сталинской эпохи.",
"participants": ["Сталин", "Хрущёв", "Маленков"],
"lat": 55.7558,
"lng": 37.6176,
"difficulty": "easy"
},
{
"id": "first_satellite",
"title": "Запуск первого искусственного спутника Земли",
"year": 1957,
"country": "СССР",
"century": 20,
"description": "СССР запустил первый в мире спутник.",
"participants": ["Королёв", "Хрущёв"],
"lat": 45.9645,
"lng": 63.3055,
"difficulty": "easy"
},
{
"id": "gagarin_flight",
"title": "Полёт Юрия Гагарина в космос",
"year": 1961,
"country": "СССР",
"century": 20,
"description": "Первый человек в космосе.",
"participants": ["Гагарин", "Королёв", "Хрущёв"],
"lat": 45.9645,
"lng": 63.3055,
"difficulty": "easy"
},
{
"id": "berlin_wall",
"title": "Строительство Берлинской стены",
"year": 1961,
"country": "ГДР",
"century": 20,
"description": "Разделение Берлина на восточную и западную части.",
"participants": ["Хрущёв", "Ульбрихт", "Кеннеди"],
"lat": 52.5200,
"lng": 13.4050,
"difficulty": "medium"
},
{
"id": "cuban_missile_crisis",
"title": "Карибский кризис",
"year": 1962,
"country": "Куба",
"century": 20,
"description": "Противостояние СССР и США из-за размещения ракет на Кубе.",
"participants": ["Хрущёв", "Кеннеди", "Кастро"],
"lat": 23.1136,
"lng": -82.3666,
"difficulty": "medium"
},
{
"id": "prague_spring",
"title": "Пражская весна",
"year": 1968,
"country": "Чехословакия",
"century": 20,
"description": "Попытка либеральных реформ, подавленная войсками Варшавского договора.",
"participants": ["Дубчек", "Брежнев"],
"lat": 50.0755,
"lng": 14.4378,
"difficulty": "hard"
},
{
"id": "afgan_war_start",
"title": "Начало Афганской войны",
"year": 1979,
"country": "Афганистан",
"century": 20,
"description": "Ввод советских войск в Афганистан.",
"participants": ["Брежнев", "Амин", "Кармаль"],
"lat": 34.5553,
"lng": 69.2075,
"difficulty": "medium"
},
{
"id": "chernobyl_disaster",
"title": "Авария на Чернобыльской АЭС",
"year": 1986,
"country": "СССР",
"century": 20,
"description": "Крупнейшая техногенная катастрофа в истории.",
"participants": ["Горбачёв", "Легасов", "Щербина"],
"lat": 51.2700,
"lng": 30.2170,
"difficulty": "easy"
},
{
"id": "glasnost_start",
"title": "Политика гласности",
"year": 1986,
"country": "СССР",
"century": 20,
"description": "Курс Михаила Горбачёва на открытость и демократизацию.",
"participants": ["Горбачёв", "Яковлев"],
"lat": 55.7558,
"lng": 37.6176,
"difficulty": "medium"
},
{
"id": "perestroika",
"title": "Перестройка",
"year": 1985,
"country": "СССР",
"century": 20,
"description": "Реформы в экономике и политике СССР.",
"participants": ["Горбачёв", "Рыжков"],
"lat": 55.7558,
"lng": 37.6176,
"difficulty": "medium"
},
{
"id": "fall_of_berlin_wall",
"title": "Падение Берлинской стены",
"year": 1989,
"country": "ГДР",
"century": 20,
"description": "Символ окончания Холодной войны.",
"participants": ["Хонеккер", "Коль", "Горбачёв"],
"lat": 52.5200,
"lng": 13.4050,
"difficulty": "easy"
},
{
"id": "ussr_dissolution",
"title": "Роспуск Советского Союза",
"year": 1991,
"country": "СССР",
"century": 20,
"description": "Официальное прекращение существования СССР.",
"participants": ["Горбачёв", "Ельцин", "Янаев"],
"lat": 55.7558,
"lng": 37.6176,
"difficulty": "easy"
},
{
"id": "russo_japanese_war",
"title": "Русско-японская война",
"year": 1904,
"country": "Россия",
"century": 20,
"description": "Война между Российской империей и Японией за влияние в Маньчжурии и Корее.",
"participants": ["Николай II", "Куропаткин", "Того"],
"lat": 39.0000,
"lng": 126.0000,
"difficulty": "medium"
},
{
"id": "potemkin_mutiny_aftermath",
"title": "Последствия восстания на «Потёмкине»",
"year": 1905,
"country": "Россия",
"century": 20,
"description": "Репрессии против моряков и усиление революционных настроений.",
"participants": ["Матюшенко", "Николай II"],
"lat": 44.6167,
"lng": 33.5250,
"difficulty": "hard"
},
{
"id": "duma_creation",
"title": "Создание Государственной думы",
"year": 1906,
"country": "Россия",
"century": 20,
"description": "Первый парламент в истории России.",
"participants": ["Николай II", "Столыпин"],
"lat": 55.7558,
"lng": 37.6176,
"difficulty": "medium"
},
{
"id": "stolypin_reforms",
"title": "Аграрные реформы Столыпина",
"year": 1906,
"country": "Россия",
"century": 20,
"description": "Попытка модернизации сельского хозяйства.",
"participants": ["Столыпин", "Николай II"],
"lat": 55.7555,
"lng": 37.6176,
"difficulty": "hard"
},
{
"id": "stolypin_assassination",
"title": "Убийство П.А. Столыпина",
"year": 1911,
"country": "Россия",
"century": 20,
"description": "Премьер-министр убит в Киеве.",
"participants": ["Столыпин", "Богров"],
"lat": 50.4501,
"lng": 30.5234,
"difficulty": "hard"
},
{
"id": "balkan_wars",
"title": "Балканские войны",
"year": 1912,
"country": "Сербия",
"century": 20,
"description": "Серия конфликтов на Балканах, предшествовавших Первой мировой войне.",
"participants": ["Никола Пашич", "Фердинанд I"],
"lat": 44.8167,
"lng": 20.4667,
"difficulty": "hard"
},
{
"id": "franz_ferdinand_assassination",
"title": "Убийство эрцгерцога Франца Фердинанда",
"year": 1914,
"country": "Австро-Венгрия",
"century": 20,
"description": "Повод к началу Первой мировой войны.",
"participants": ["Гаврило Принцип", "Франц Фердинанд"],
"lat": 43.8563,
"lng": 18.4131,
"difficulty": "easy"
},
{
"id": "tannenberg_battle",
"title": "Битва при Танненберге",
"year": 1914,
"country": "Германия",
"century": 20,
"description": "Разгром 2-й русской армии немцами.",
"participants": ["Самсонов", "Гинденбург", "Людендорф"],
"lat": 53.5000,
"lng": 20.5000,
"difficulty": "hard"
},
{
"id": "gallipoli_campaign",
"title": "Галлипольская операция",
"year": 1915,
"country": "Османская империя",
"century": 20,
"description": "Неудачная высадка союзников в Дарданеллах.",
"participants": ["Черчилль", "Энвер-паша"],
"lat": 40.4000,
"lng": 26.7000,
"difficulty": "hard"
},
{
"id": "lusitania_sinking",
"title": "Гибель «Лузитании»",
"year": 1915,
"country": "Ирландия",
"century": 20,
"description": "Торпедирование британского лайнера немецкой подлодкой.",
"participants": ["Вильгельм II", "Уилсон"],
"lat": 51.4500,
"lng": -8.3000,
"difficulty": "medium"
},
{
"id": "verdun_battle",
"title": "Битва при Вердене",
"year": 1916,
"country": "Франция",
"century": 20,
"description": "Одно из самых кровопролитных сражений Первой мировой войны.",
"participants": ["Петен", "Фалькенхайн"],
"lat": 49.1500,
"lng": 5.3000,
"difficulty": "medium"
},
{
"id": "somme_battle",
"title": "Битва на Сомме",
"year": 1916,
"country": "Франция",
"century": 20,
"description": "Крупное наступление англо-французских войск.",
"participants": ["Хоуг", "Фош"],
"lat": 49.9000,
"lng": 2.5000,
"difficulty": "medium"
},
{
"id": "october_strike_1905",
"title": "Октябрьский манифест 1905 года",
"year": 1905,
"country": "Россия",
"century": 20,
"description": "Обещание гражданских свобод и созыва Думы.",
"participants": ["Николай II", "Витте"],
"lat": 55.7558,
"lng": 37.6176,
"difficulty": "hard"
},
{
"id": "february_strike_1917",
"title": "Февральские забастовки в Петрограде",
"year": 1917,
"country": "Россия",
"century": 20,
"description": "Начало Февральской революции.",
"participants": ["Керенский", "Родзянко"],
"lat": 59.9343,
"lng": 30.3351,
"difficulty": "medium"
},
{
"id": "april_theses",
"title": "Апрельские тезисы Ленина",
"year": 1917,
"country": "Россия",
"century": 20,
"description": "Программа большевиков: «Вся власть Советам!»",
"participants": ["Ленин", "Троцкий"],
"lat": 59.9343,
"lng": 30.3351,
"difficulty": "hard"
},
{
"id": "july_days",
"title": "Июльские дни",
"year": 1917,
"country": "Россия",
"century": 20,
"description": "Вооружённые выступления рабочих и солдат в Петрограде.",
"participants": ["Ленин", "Керенский"],
"lat": 59.9343,
"lng": 30.3351,
"difficulty": "hard"
},
{
"id": "kornilov_affair",
"title": "Корниловщина",
"year": 1917,
"country": "Россия",
"century": 20,
"description": "Попытка генерала Корнилова установить военную диктатуру.",
"participants": ["Корнилов", "Керенский", "Ленин"],
"lat": 55.7558,
"lng": 37.6176,
"difficulty": "hard"
},
{
"id": "brest_lithuania_treaty",
"title": "Брестский мир",
"year": 1918,
"country": "СССР",
"century": 20,
"description": "Выход России из Первой мировой войны.",
"participants": ["Троцкий", "Гофман"],
"lat": 52.0975,
"lng": 23.6850,
"difficulty": "medium"
},
{
"id": "red_terror_start",
"title": "Начало Красного террора",
"year": 1918,
"country": "СССР",
"century": 20,
"description": "Массовые репрессии большевиков против «классовых врагов».",
"participants": ["Дзержинский", "Ленин"],
"lat": 55.7558,
"lng": 37.6176,
"difficulty": "hard"
},
{
"id": "white_army_formation",
"title": "Формирование Белой армии",
"year": 1918,
"country": "Россия",
"century": 20,
"description": "Создание вооружённых сил антибольшевистского сопротивления.",
"participants": ["Деникин", "Колчак", "Юденич"],
"lat": 45.0000,
"lng": 42.0000,
"difficulty": "medium"
},
{
"id": "war_communism",
"title": "Политика военного коммунизма",
"year": 1918,
"country": "СССР",
"century": 20,
"description": "Экономическая система в годы Гражданской войны.",
"participants": ["Ленин", "Троцкий"],
"lat": 55.7558,
"lng": 37.6176,
"difficulty": "hard"
},
{
"id": "polish_soviet_war",
"title": "Польско-советская война",
"year": 1919,
"country": "Польша",
"century": 20,
"description": "Конфликт между Польшей и РСФСР.",
"participants": ["Пилсудский", "Тухачевский"],
"lat": 52.2297,
"lng": 21.0122,
"difficulty": "hard"
},
{
"id": "new_economic_policy",
"title": "Новая экономическая политика (НЭП)",
"year": 1921,
"country": "СССР",
"century": 20,
"description": "Частичный возврат к рыночной экономике.",
"participants": ["Ленин", "Бухарин"],
"lat": 55.7558,
"lng": 37.6176,
"difficulty": "medium"
},
{
"id": "lenin_death",
"title": "Смерть Владимира Ленина",
"year": 1924,
"country": "СССР",
"century": 20,
"description": "Конец эпохи Ленина, начало борьбы за власть.",
"participants": ["Ленин", "Сталин", "Троцкий"],
"lat": 55.7558,
"lng": 37.6176,
"difficulty": "easy"
},
{
"id": "trotsky_exile",
"title": "Изгнание Льва Троцкого",
"year": 1929,
"country": "СССР",
"century": 20,
"description": "Высылка Троцкого из СССР.",
"participants": ["Троцкий", "Сталин"],
"lat": 55.7558,
"lng": 37.6176,
"difficulty": "hard"
},
{
"id": "first_five_year_plan",
"title": "Первая пятилетка",
"year": 1928,
"country": "СССР",
"century": 20,
"description": "Массовая индустриализация страны.",
"participants": ["Сталин", "Куйбышев"],
"lat": 55.7558,
"lng": 37.6176,
"difficulty": "medium"
},
{
"id": "dekulakization",
"title": "Раскулачивание",
"year": 1930,
"country": "СССР",
"century": 20,
"description": "Насильственное лишение кулаков имущества.",
"participants": ["Сталин", "Молотов"],
"lat": 55.7558,
"lng": 37.6176,
"difficulty": "hard"
},
{
"id": "moscow_trials",
"title": "Московские процессы",
"year": 1936,
"country": "СССР",
"century": 20,
"description": "Показательные судебные процессы над оппозицией.",
"participants": ["Бухарин", "Зиновьев", "Ежов"],
"lat": 55.7558,
"lng": 37.6176,
"difficulty": "hard"
},
{
"id": "molotov_ribbentrop_pact_secret_protocol",
"title": "Секретный протокол пакта Молотова–Риббентропа",
"year": 1939,
"country": "СССР",
"century": 20,
"description": "Раздел Восточной Европы на сферы влияния.",
"participants": ["Молотов", "Риббентроп"],
"lat": 55.7558,
"lng": 37.6176,
"difficulty": "hard"
},
{
"id": "soviet_invasion_poland",
"title": "Вторжение СССР в Польшу",
"year": 1939,
"country": "Польша",
"century": 20,
"description": "Оккупация восточных территорий Польши.",
"participants": ["Сталин", "Рыдз-Смиглы"],
"lat": 52.0000,
"lng": 24.0000,
"difficulty": "medium"
},
{
"id": "katyn_massacre",
"title": "Расстрел польских офицеров в Катыни",
"year": 1940,
"country": "СССР",
"century": 20,
"description": "Массовое убийство польских военнопленных НКВД.",
"participants": ["Берия", "Сталин"],
"lat": 54.7833,
"lng": 33.1167,
"difficulty": "hard"
},
{
"id": "soviet_finnish_war_aftermath",
"title": "Итоги Советско-финской войны",
"year": 1940,
"country": "СССР",
"century": 20,
"description": "Пиррова победа СССР, территориальные приобретения.",
"participants": ["Сталин", "Маннергейм"],
"lat": 60.1699,
"lng": 24.9384,
"difficulty": "medium"
},
{
"id": "operation_barbarossa_preparation",
"title": "Подготовка операции «Барбаросса»",
"year": 1940,
"country": "Германия",
"century": 20,
"description": "Планирование нападения на СССР.",
"participants": ["Гитлер", "Гальдер"],
"lat": 52.5200,
"lng": 13.4050,
"difficulty": "hard"
},
{
"id": "defense_of_brest_fortress",
"title": "Оборона Брестской крепости",
"year": 1941,
"country": "СССР",
"century": 20,
"description": "Героическая оборона крепости в первые дни войны.",
"participants": ["Жаворонков", "Фомин"],
"lat": 52.0975,
"lng": 23.6850,
"difficulty": "easy"
},
{
"id": "siege_of_odessa",
"title": "Оборона Одессы",
"year": 1941,
"country": "СССР",
"century": 20,
"description": "73-дневная оборона города от румынских и немецких войск.",
"participants": ["Ласкин", "Антонеску"],
"lat": 46.4825,
"lng": 30.7233,
"difficulty": "medium"
},
{
"id": "defense_of_sevastopol",
"title": "Оборона Севастополя",
"year": 1941,
"country": "СССР",
"century": 20,
"description": "250-дневная оборона города.",
"participants": ["Октябрьский", "Манштейн"],
"lat": 44.6167,
"lng": 33.5250,
"difficulty": "medium"
},
{
"id": "battle_of_kharkov",
"title": "Битва за Харьков",
"year": 1942,
"country": "СССР",
"century": 20,
"description": "Серия сражений за стратегически важный город.",
"participants": ["Тимошенко", "Паулюс"],
"lat": 49.9920,
"lng": 36.2304,
"difficulty": "hard"
},
{
"id": "caucasus_campaign",
"title": "Битва за Кавказ",
"year": 1942,
"country": "СССР",
"century": 20,
"description": "Немецкое наступление на нефтяные месторождения.",
"participants": ["Малая Земля", "Лист"],
"lat": 43.0000,
"lng": 44.0000,
"difficulty": "hard"
},
{
"id": "el_alamein_battle",
"title": "Битва при Эль-Аламейне",
"year": 1942,
"country": "Египет",
"century": 20,
"description": "Перелом в Северной Африке.",
"participants": ["Монтгомери", "Роммель"],
"lat": 30.8500,
"lng": 28.8000,
"difficulty": "medium"
},
{
"id": "stalingrad_surrender",
"title": "Капитуляция Паулюса под Сталинградом",
"year": 1943,
"country": "СССР",
"century": 20,
"description": "Окончание Сталинградской битвы.",
"participants": ["Паулюс", "Чуйков"],
"lat": 48.7080,
"lng": 44.5133,
"difficulty": "easy"
},
{
"id": "tehran_conference",
"title": "Тегеранская конференция",
"year": 1943,
"country": "Иран",
"century": 20,
"description": "Встреча «Большой тройки» для координации действий.",
"participants": ["Сталин", "Рузвельт", "Черчилль"],
"lat": 35.6892,
"lng": 51.3890,
"difficulty": "medium"
},
{
"id": "belorussian_operation",
"title": "Операция «Багратион»",
"year": 1944,
"country": "СССР",
"century": 20,
"description": "Освобождение Белоруссии.",
"participants": ["Рокоссовский", "Баграмян"],
"lat": 53.9000,
"lng": 27.5667,
"difficulty": "medium"
},
{
"id": "normandy_landing",
"title": "Высадка в Нормандии",
"year": 1944,
"country": "Франция",
"century": 20,
"description": "Открытие второго фронта.",
"participants": ["Эйзенхауэр", "Монтгомери"],
"lat": 49.4000,
"lng": -1.3000,
"difficulty": "easy"
},
{
"id": "varsaw_uprising",
"title": "Варшавское восстание",
"year": 1944,
"country": "Польша",
"century": 20,
"description": "Восстание польского подполья против немцев.",
"participants": ["Бор-Коморовский", "Химmler"],
"lat": 52.2297,
"lng": 21.0122,
"difficulty": "hard"
},
{
"id": "yalta_conference_decisions",
"title": "Решения Ялтинской конференции",
"year": 1945,
"country": "СССР",
"century": 20,
"description": "План послевоенного устройства Европы.",
"participants": ["Сталин", "Рузвельт", "Черчилль"],
"lat": 44.4986,
"lng": 34.1611,
"difficulty": "medium"
},
{
"id": "berlin_battle",
"title": "Битва за Берлин",
"year": 1945,
"country": "Германия",
"century": 20,
"description": "Финальное сражение в Европе.",
"participants": ["Жуков", "Гитлер", "Кёниг"],
"lat": 52.5200,
"lng": 13.4050,
"difficulty": "easy"
},
{
"id": "nuremberg_trials",
"title": "Нюрнбергский процесс",
"year": 1945,
"country": "Германия",
"century": 20,
"description": "Суд над главными нацистскими преступниками.",
"participants": ["Гёринг", "Ширах", "Роберт Джексон"],
"lat": 49.4500,
"lng": 11.0833,
"difficulty": "medium"
},
{
"id": "marshall_plan",
"title": "План Маршалла",
"year": 1947,
"country": "США",
"century": 20,
"description": "Программа экономической помощи Европе.",
"participants": ["Маршалл", "Трумэн"],
"lat": 38.8951,
"lng": -77.0369,
"difficulty": "medium"
},
{
"id": "nato_creation",
"title": "Создание НАТО",
"year": 1949,
"country": "США",
"century": 20,
"description": "Военно-политический блок западных стран.",
"participants": ["Трумэн", "Бидл"],
"lat": 38.8951,
"lng": -77.0369,
"difficulty": "medium"
},
{
"id": "warsaw_pact_creation",
"title": "Создание Организации Варшавского договора",
"year": 1955,
"country": "СССР",
"century": 20,
"description": "Военно-политический союз социалистических стран.",
"participants": ["Хрущёв", "Герек"],
"lat": 52.2297,
"lng": 21.0122,
"difficulty": "medium"
},
{
"id": "hungarian_uprising",
"title": "Венгерское восстание",
"year": 1956,
"country": "Венгрия",
"century": 20,
"description": "Попытка выхода из-под влияния СССР, подавленная советскими войсками.",
"participants": ["Надь", "Хрущёв"],
"lat": 47.4979,
"lng": 19.0402,
"difficulty": "hard"
},
{
"id": "suez_crisis",
"title": "Суэцкий кризис",
"year": 1956,
"country": "Египет",
"century": 20,
"description": "Конфликт вокруг национализации Суэцкого канала.",
"participants": ["Насер", "Эден", "Моллет"],
"lat": 30.0444,
"lng": 31.2357,
"difficulty": "hard"
},
{
"id": "sputnik_2_launch",
"title": "Запуск «Спутника-2» с собакой Лайкой",
"year": 1957,
"country": "СССР",
"century": 20,
"description": "Первое живое существо в космосе.",
"participants": ["Королёв", "Лайка"],
"lat": 45.9645,
"lng": 63.3055,
"difficulty": "easy"
},
{
"id": "luna_1_launch",
"title": "Запуск «Луны-1»",
"year": 1959,
"country": "СССР",
"century": 20,
"description": "Первый аппарат, достигший окрестностей Луны.",
"participants": ["Королёв", "Хрущёв"],
"lat": 45.9645,
"lng": 63.3055,
"difficulty": "medium"
},
{
"id": "cuban_revolution",
"title": "Кубинская революция",
"year": 1959,
"country": "Куба",
"century": 20,
"description": "Приход к власти Фиделя Кастро.",
"participants": ["Кастро", "Батиста"],
"lat": 23.1136,
"lng": -82.3666,
"difficulty": "medium"
},
{
"id": "u2_incident",
"title": "Инцидент с самолётом U-2",
"year": 1960,
"country": "СССР",
"century": 20,
"description": "Сбитие американского разведчика над СССР.",
"participants": ["Пауэрс", "Хрущёв", "Эйзенхауэр"],
"lat": 55.7558,
"lng": 37.6176,
"difficulty": "hard"
},
{
"id": "berlin_wall_construction",
"title": "Строительство Берлинской стены",
"year": 1961,
"country": "ГДР",
"century": 20,
"description": "Физическое разделение Восточного и Западного Берлина.",
"participants": ["Ульбрихт", "Хрущёв", "Кеннеди"],
"lat": 52.5200,
"lng": 13.4050,
"difficulty": "easy"
},
{
"id": "vostok_2_mission",
"title": "Полёт Германа Титова на «Востоке-2»",
"year": 1961,
"country": "СССР",
"century": 20,
"description": "Первый суточный полёт человека в космосе.",
"participants": ["Титов", "Королёв"],
"lat": 45.9645,
"lng": 63.3055,
"difficulty": "medium"
},
{
"id": "vienna_summit",
"title": "Венская встреча Хрущёва и Кеннеди",
"year": 1961,
"country": "Австрия",
"century": 20,
"description": "Переговоры по ключевым вопросам Холодной войны.",
"participants": ["Хрущёв", "Кеннеди"],
"lat": 48.2082,
"lng": 16.3738,
"difficulty": "medium"
},
{
"id": "bay_of_pigs_invasion",
"title": "Высадка в заливе Кочинос",
"year": 1961,
"country": "Куба",
"century": 20,
"description": "Неудачная попытка свергнуть Кастро.",
"participants": ["Кеннеди", "Кастро"],
"lat": 22.5000,
"lng": -81.0000,
"difficulty": "medium"
},
{
"id": "vostok_3_and_4_missions",
"title": "Групповой полёт «Восток-3» и «Восток-4»",
"year": 1962,
"country": "СССР",
"century": 20,
"description": "Первый групповой полёт в космосе.",
"participants": ["Николаев", "Попович", "Королёв"],
"lat": 45.9645,
"lng": 63.3055,
"difficulty": "hard"
},
{
"id": "moscow_hotline_establishment",
"title": "Создание «горячей линии» Вашингтон—Москва",
"year": 1963,
"country": "США",
"century": 20,
"description": "Прямая связь между лидерами СССР и США после Карибского кризиса.",
"participants": ["Хрущёв", "Кеннеди"],
"lat": 38.8951,
"lng": -77.0369,
"difficulty": "medium"
},
{
"id": "kennedy_assassination",
"title": "Убийство Джона Кеннеди",
"year": 1963,
"country": "США",
"century": 20,
"description": "Президент США убит в Далласе.",
"participants": ["Кеннеди", "Осуальд"],
"lat": 32.7767,
"lng": -96.7970,
"difficulty": "easy"
},
{
"id": "vostok_6_mission",
"title": "Полёт Валентины Терешковой",
"year": 1963,
"country": "СССР",
"century": 20,
"description": "Первая женщина в космосе.",
"participants": ["Терешкова", "Королёв"],
"lat": 45.9645,
"lng": 63.3055,
"difficulty": "easy"
},
{
"id": "vietnam_war_escalation",
"title": "Эскалация войны во Вьетнаме",
"year": 1964,
"country": "Вьетнам",
"century": 20,
"description": "Ввод американских войск во Вьетнам.",
"participants": ["Джонсон", "Хо Ши Мин"],
"lat": 16.0000,
"lng": 106.0000,
"difficulty": "medium"
},
{
"id": "kosygin_reforms",
"title": "Экономическая реформа Косыгина",
"year": 1965,
"country": "СССР",
"century": 20,
"description": "Попытка модернизации плановой экономики.",
"participants": ["Косыгин", "Брежнев"],
"lat": 55.7558,
"lng": 37.6176,
"difficulty": "hard"
},
{
"id": "six_day_war",
"title": "Шестидневная война",
"year": 1967,
"country": "Израиль",
"century": 20,
"description": "Война Израиля с арабскими странами.",
"participants": ["Эшколь", "Насер"],
"lat": 31.7683,
"lng": 35.2137,
"difficulty": "medium"
},
{
"id": "treaty_on_outer_space",
"title": "Договор о космосе",
"year": 1967,
"country": "США",
"century": 20,
"description": "Запрет на размещение ядерного оружия в космосе.",
"participants": ["Джонсон", "Косыгин"],
"lat": 38.8951,
"lng": -77.0369,
"difficulty": "hard"
},
{
"id": "prague_spring_suppression",
"title": "Подавление «Пражской весны»",
"year": 1968,
"country": "Чехословакия",
"century": 20,
"description": "Ввод войск Варшавского договора в Чехословакию.",
"participants": ["Дубчек", "Брежнев"],
"lat": 50.0755,
"lng": 14.4378,
"difficulty": "medium"
},
{
"id": "nuclear_non_proliferation_treaty",
"title": "Договор о нераспространении ядерного оружия",
"year": 1968,
"country": "США",
"century": 20,
"description": "Международное соглашение по контролю над ядерным оружием.",
"participants": ["Джонсон", "Косыгин"],
"lat": 38.8951,
"lng": -77.0369,
"difficulty": "hard"
},
{
"id": "apollo_8_mission",
"title": "Полёт «Аполлона-8»",
"year": 1968,
"country": "США",
"century": 20,
"description": "Первый пилотируемый облёт Луны.",
"participants": ["Борман", "Ловелл", "Андерс"],
"lat": 28.5729,
"lng": -80.6490,
"difficulty": "medium"
},
{
"id": "woodstock_festival",
"title": "Фестиваль Вудсток",
"year": 1969,
"country": "США",
"century": 20,
"description": "Культурное событие эпохи хиппи.",
"participants": ["Хендрикс", "Джоплин"],
"lat": 41.7500,
"lng": -74.5000,
"difficulty": "easy"
},
{
"id": "moon_landing",
"title": "Высадка человека на Луну",
"year": 1969,
"country": "США",
"century": 20,
"description": "«Аполлон-11» — первый человек на Луне.",
"participants": ["Армстронг", "Олдрин", "Коллинз"],
"lat": 28.5729,
"lng": -80.6490,
"difficulty": "easy"
},
{
"id": "soyuz_4_and_5_docking",
"title": "Стыковка «Союз-4» и «Союз-5»",
"year": 1969,
"country": "СССР",
"century": 20,
"description": "Первый перехват космонавтов в открытом космосе.",
"participants": ["Шаталов", "Волков", "Елисеев"],
"lat": 45.9645,
"lng": 63.3055,
"difficulty": "hard"
},
{
"id": "chile_allende_election",
"title": "Избрание Сальвадора Альенде",
"year": 1970,
"country": "Чили",
"century": 20,
"description": "Первый социалистический президент в Латинской Америке.",
"participants": ["Альенде", "Никсон"],
"lat": -33.4500,
"lng": -70.6667,
"difficulty": "hard"
},
{
"id": "sadat_visit_israel",
"title": "Визит Анвара Садата в Израиль",
"year": 1977,
"country": "Израиль",
"century": 20,
"description": "Первый визит арабского лидера в Израиль.",
"participants": ["Садат", "Бегин"],
"lat": 31.7683,
"lng": 35.2137,
"difficulty": "hard"
},
{
"id": "three_mile_island_accident",
"title": "Авария на острове Три-Майл",
"year": 1979,
"country": "США",
"century": 20,
"description": "Крупнейшая ядерная авария в США.",
"participants": ["Картер", "Метцгер"],
"lat": 40.1500,
"lng": -76.7200,
"difficulty": "medium"
},
{
"id": "iranian_revolution",
"title": "Исламская революция в Иране",
"year": 1979,
"country": "Иран",
"century": 20,
"description": "Свержение шаха и приход к власти аятоллы Хомейни.",
"participants": ["Хомейни", "Пехлеви"],
"lat": 35.6892,
"lng": 51.3890,
"difficulty": "medium"
},
{
"id": "salyut_1_launch",
"title": "Запуск первой орбитальной станции «Салют-1»",
"year": 1971,
"country": "СССР",
"century": 20,
"description": "Первая в мире космическая станция.",
"participants": ["Добровольский", "Королёв"],
"lat": 45.9645,
"lng": 63.3055,
"difficulty": "medium"
},
{
"id": "bangladesh_liberation_war",
"title": "Война за независимость Бангладеш",
"year": 1971,
"country": "Бангладеш",
"century": 20,
"description": "Отделение Бангладеш от Пакистана.",
"participants": ["Муджибур Рахман", "Индира Ганди"],
"lat": 23.8103,
"lng": 90.4125,
"difficulty": "hard"
},
{
"id": "watergate_scandal",
"title": "Уотергейтский скандал",
"year": 1972,
"country": "США",
"century": 20,
"description": "Политический скандал, приведший к отставке Никсона.",
"participants": ["Никсон", "Джон Дин"],
"lat": 38.8951,
"lng": -77.0369,
"difficulty": "medium"
},
{
"id": "détente_summit",
"title": "Саммит разрядки",
"year": 1972,
"country": "США",
"century": 20,
"description": "Подписание договоров ОСВ-1 и ABM.",
"participants": ["Никсон", "Брежнев"],
"lat": 38.8951,
"lng": -77.0369,
"difficulty": "hard"
},
{
"id": "yom_kippur_war",
"title": "Война Судного дня",
"year": 1973,
"country": "Израиль",
"century": 20,
"description": "Нападение Египта и Сирии на Израиль.",
"participants": ["Садат", "Бегин", "Асад"],
"lat": 31.7683,
"lng": 35.2137,
"difficulty": "medium"
},
{
"id": "oil_crisis",
"title": "Нефтяной кризис",
"year": 1973,
"country": "Саудовская Аравия",
"century": 20,
"description": "Эмбарго на поставки нефти в западные страны.",
"participants": ["Фейсал", "Киссинджер"],
"lat": 24.7136,
"lng": 46.6753,
"difficulty": "medium"
},
{
"id": "apollo_soyuz_test_project",
"title": "Экспериментальный полёт «Аполлон»—«Союз»",
"year": 1975,
"country": "США",
"century": 20,
"description": "Первая совместная космическая миссия СССР и США.",
"participants": ["Стэффорд", "Леонов"],
"lat": 28.5729,
"lng": -80.6490,
"difficulty": "easy"
},
{
"id": "helsinki_accords",
"title": "Хельсинкские соглашения",
"year": 1975,
"country": "Финляндия",
"century": 20,
"description": "Документ по безопасности и сотрудничеству в Европе.",
"participants": ["Форд", "Брежнев"],
"lat": 60.1699,
"lng": 24.9384,
"difficulty": "hard"
},
{
"id": "angolan_civil_war",
"title": "Гражданская война в Анголе",
"year": 1975,
"country": "Ангола",
"century": 20,
"description": "Противостояние про-советских и про-западных сил.",
"participants": ["Нето", "Савимби"],
"lat": -8.8368,
"lng": 13.2343,
"difficulty": "hard"
},
{
"id": "vietnam_war_end",
"title": "Окончание войны во Вьетнаме",
"year": 1975,
"country": "Вьетнам",
"century": 20,
"description": "Падение Сайгона и воссоединение Вьетнама.",
"participants": ["Зием", "Тань"],
"lat": 10.8231,
"lng": 106.6297,
"difficulty": "easy"
},
{
"id": "indira_gandhi_assassination",
"title": "Убийство Индиры Ганди",
"year": 1984,
"country": "Индия",
"century": 20,
"description": "Премьер-министр убита собственными телохранителями.",
"participants": ["Индира Ганди", "Бейнт Сингх"],
"lat": 28.6139,
"lng": 77.2090,
"difficulty": "medium"
},
{
"id": "glasnost_announcement",
"title": "Объявление политики гласности",
"year": 1986,
"country": "СССР",
"century": 20,
"description": "Горбачёв объявил курс на открытость.",
"participants": ["Горбачёв", "Яковлев"],
"lat": 55.7558,
"lng": 37.6176,
"difficulty": "medium"
},
{
"id": "reykjavik_summit",
"title": "Рейкьявикская встреча Горбачёва и Рейгана",
"year": 1986,
"country": "Исландия",
"century": 20,
"description": "Переговоры по ядерному разоружению.",
"participants": ["Горбачёв", "Рейган"],
"lat": 64.1466,
"lng": -21.9426,
"difficulty": "hard"
},
{
"id": "intifada_start",
"title": "Начало Первой интифады",
"year": 1987,
"country": "Палестина",
"century": 20,
"description": "Палестинское восстание против Израиля.",
"participants": ["Арафат", "Рабин"],
"lat": 31.9500,
"lng": 35.2333,
"difficulty": "hard"
},
{
"id": "fall_of_berlin_wall_details",
"title": "Подробности падения Берлинской стены",
"year": 1989,
"country": "ГДР",
"century": 20,
"description": "Массовое открытие границы между Восточным и Западным Берлином.",
"participants": ["Хонеккер", "Коль", "Горбачёв"],
"lat": 52.5200,
"lng": 13.4050,
"difficulty": "easy"
},
{
"id": "velvet_revolution",
"title": "Бархатная революция в Чехословакии",
"year": 1989,
"country": "Чехословакия",
"century": 20,
"description": "Мирная смена власти.",
"participants": ["Гавел", "Якеш"],
"lat": 50.0755,
"lng": 14.4378,
"difficulty": "medium"
},
{
"id": "romanian_revolution",
"title": "Румынская революция",
"year": 1989,
"country": "Румыния",
"century": 20,
"description": "Свержение диктатора Чаушеску.",
"participants": ["Чаушеску", "Илиеску"],
"lat": 44.4268,
"lng": 26.1025,
"difficulty": "medium"
},
{
"id": "malta_summit",
"title": "Мальтийская встреча Горбачёва и Буша",
"year": 1989,
"country": "Мальта",
"century": 20,
"description": "Объявление окончания Холодной войны.",
"participants": ["Горбачёв", "Буш"],
"lat": 35.9375,
"lng": 14.3754,
"difficulty": "medium"
},
{
"id": "german_reunification",
"title": "Воссоединение Германии",
"year": 1990,
"country": "Германия",
"century": 20,
"description": "Объединение ФРГ и ГДР.",
"participants": ["Коль", "Горбачёв", "Буш"],
"lat": 52.5200,
"lng": 13.4050,
"difficulty": "easy"
},
{
"id": "gulf_war",
"title": "Война в Персидском заливе",
"year": 1991,
"country": "Ирак",
"century": 20,
"description": "Операция «Буря в пустыне» против Ирака.",
"participants": ["Буш", "Хусейн", "Чейни"],
"lat": 33.2232,
"lng": 43.6793,
"difficulty": "medium"
},
{
"id": "belavezha_accords",
"title": "Беловежские соглашения",
"year": 1991,
"country": "Беларусь",
"century": 20,
"description": "Роспуск СССР и создание СНГ.",
"participants": ["Ельцин", "Кравчук", "Шушкевич"],
"lat": 52.4333,
"lng": 26.1833,
"difficulty": "easy"
},
{
"id": "alma_ata_declaration",
"title": "Алма-Атинская декларация",
"year": 1991,
"country": "Казахстан",
"century": 20,
"description": "Окончательное оформление распада СССР.",
"participants": ["Ельцин", "Назарбаев", "Кравчук"],
"lat": 43.2500,
"lng": 76.9167,
"difficulty": "medium"
},
{
"id": "russo_japanese_war_aftermath",
"title": "Итоги Русско-японской войны",
"year": 1905,
"country": "Россия",
"century": 20,
"description": "Поражение России, усиление революционных настроений.",
"participants": ["Николай II", "Куропаткин"],
"lat": 39.0000,
"lng": 126.0000,
"difficulty": "medium"
},
{
"id": "first_state_duma",
"title": "Первая Государственная дума",
"year": 1906,
"country": "Россия",
"century": 20,
"description": "Первый созыв парламента, распущен через 72 дня.",
"participants": ["Николай II", "Родзянко"],
"lat": 55.7558,
"lng": 37.6176,
"difficulty": "hard"
},
{
"id": "second_state_duma",
"title": "Вторая Государственная дума",
"year": 1907,
"country": "Россия",
"century": 20,
"description": "Распущена после трёх месяцев работы.",
"participants": ["Николай II", "Столыпин"],
"lat": 55.7558,
"lng": 37.6176,
"difficulty": "hard"
},
{
"id": "third_state_duma",
"title": "Третья Государственная дума",
"year": 1907,
"country": "Россия",
"century": 20,
"description": "Первый полный созыв, работала до 1912 года.",
"participants": ["Николай II", "Родзянко"],
"lat": 55.7558,
"lng": 37.6176,
"difficulty": "hard"
},
{
"id": "fourth_state_duma",
"title": "Четвёртая Государственная дума",
"year": 1912,
"country": "Россия",
"century": 20,
"description": "Последний созыв до революции 1917 года.",
"participants": ["Николай II", "Родзянко"],
"lat": 55.7558,
"lng": 37.6176,
"difficulty": "hard"
},
{
"id": "assassination_of_rasputin",
"title": "Убийство Григория Распутина",
"year": 1916,
"country": "Россия",
"century": 20,
"description": "Заговор аристократов против «старца».",
"participants": ["Распутин", "Юсупов", "Дмитрий Павлович"],
"lat": 59.9343,
"lng": 30.3351,
"difficulty": "medium"
},
{
"id": "abdication_of_nicholas_ii",
"title": "Отречение Николая II",
"year": 1917,
"country": "Россия",
"century": 20,
"description": "Конец Российской империи.",
"participants": ["Николай II", "Родзянко", "Керенский"],
"lat": 59.9343,
"lng": 30.3351,
"difficulty": "easy"
},
{
"id": "april_crisis",
"title": "Апрельский кризис Временного правительства",
"year": 1917,
"country": "Россия",
"century": 20,
"description": "Массовые протесты против продолжения войны.",
"participants": ["Керенский", "Ленин"],
"lat": 59.9343,
"lng": 30.3351,
"difficulty": "hard"
},
{
"id": "july_crisis_1917",
"title": "Июльский кризис 1917 года",
"year": 1917,
"country": "Россия",
"century": 20,
"description": "Попытка большевиков свергнуть Временное правительство.",
"participants": ["Ленин", "Керенский"],
"lat": 59.9343,
"lng": 30.3351,
"difficulty": "hard"
},
{
"id": "kornilov_revolt",
"title": "Корниловский мятеж",
"year": 1917,
"country": "Россия",
"century": 20,
"description": "Попытка генерала установить военную диктатуру.",
"participants": ["Корнилов", "Керенский", "Ленин"],
"lat": 55.7558,
"lng": 37.6176,
"difficulty": "hard"
},
{
"id": "october_uprising_preparation",
"title": "Подготовка Октябрьского вооружённого восстания",
"year": 1917,
"country": "Россия",
"century": 20,
"description": "Создание Военно-революционного комитета.",
"participants": ["Ленин", "Троцкий", "Свердлов"],
"lat": 59.9343,
"lng": 30.3351,
"difficulty": "hard"
},
{
"id": "storming_of_winter_palace",
"title": "Штурм Зимнего дворца",
"year": 1917,
"country": "Россия",
"century": 20,
"description": "Захват резиденции Временного правительства.",
"participants": ["Троцкий", "Керенский"],
"lat": 59.9343,
"lng": 30.3351,
"difficulty": "easy"
},
{
"id": "decree_on_land",
"title": "Декрет о земле",
"year": 1917,
"country": "Россия",
"century": 20,
"description": "Передача земли крестьянам.",
"participants": ["Ленин", "Свердлов"],
"lat": 55.7558,
"lng": 37.6176,
"difficulty": "medium"
},
{
"id": "decree_on_peace",
"title": "Декрет о мире",
"year": 1917,
"country": "Россия",
"century": 20,
"description": "Предложение всем странам заключить мир.",
"participants": ["Ленин", "Троцкий"],
"lat": 55.7558,
"lng": 37.6176,
"difficulty": "medium"
},
{
"id": "cheka_creation",
"title": "Создание ВЧК",
"year": 1917,
"country": "Россия",
"century": 20,
"description": "Орган по борьбе с контрреволюцией.",
"participants": ["Дзержинский", "Ленин"],
"lat": 55.7558,
"lng": 37.6176,
"difficulty": "medium"
},
{
"id": "treaty_of_brest_litovsk_signing",
"title": "Подписание Брестского мира",
"year": 1918,
"country": "СССР",
"century": 20,
"description": "Выход России из Первой мировой войны.",
"participants": ["Троцкий", "Гофман"],
"lat": 52.0975,
"lng": 23.6850,
"difficulty": "medium"
},
{
"id": "execution_of_tsar_family",
"title": "Расстрел семьи Николая II",
"year": 1918,
"country": "СССР",
"century": 20,
"description": "Казнь последнего российского императора и его семьи.",
"participants": ["Николай II", "Юровский"],
"lat": 56.8380,
"lng": 60.5970,
"difficulty": "easy"
},
{
"id": "red_army_creation",
"title": "Создание Рабоче-крестьянской Красной армии",
"year": 1918,
"country": "СССР",
"century": 20,
"description": "Формирование регулярной армии большевиков.",
"participants": ["Троцкий", "Ленин"],
"lat": 55.7558,
"lng": 37.6176,
"difficulty": "medium"
},
{
"id": "white_army_offensives",
"title": "Наступления Белой армии",
"year": 1919,
"country": "Россия",
"century": 20,
"description": "Крупные наступательные операции Деникина и Колчака.",
"participants": ["Деникин", "Колчак", "Троцкий"],
"lat": 45.0000,
"lng": 42.0000,
"difficulty": "hard"
},
{
"id": "war_communism_effects",
"title": "Последствия военного коммунизма",
"year": 1920,
"country": "СССР",
"century": 20,
"description": "Экономический кризис и массовые восстания.",
"participants": ["Ленин", "Троцкий"],
"lat": 55.7558,
"lng": 37.6176,
"difficulty": "hard"
},
{
"id": "kronstadt_rebellion",
"title": "Кронштадтское восстание",
"year": 1921,
"country": "СССР",
"century": 20,
"description": "Мятеж моряков против большевиков.",
"participants": ["Ленин", "Троцкий", "Петриченко"],
"lat": 59.9930,
"lng": 29.7500,
"difficulty": "hard"
},
{
"id": "treaty_of_riga",
"title": "Рижский мирный договор",
"year": 1921,
"country": "Польша",
"century": 20,
"description": "Окончание Польско-советской войны.",
"participants": ["Пилсудский", "Ленин"],
"lat": 52.2297,
"lng": 21.0122,
"difficulty": "hard"
},
{
"id": "death_of_alexandra_kollontai",
"title": "Смерть Александры Коллонтай",
"year": 1952,
"country": "СССР",
"century": 20,
"description": "Одна из первых женщин-дипломатов в мире.",
"participants": ["Коллонтай", "Ленин"],
"lat": 55.7558,
"lng": 37.6176,
"difficulty": "hard"
},
{
"id": "stalin_rise_to_power",
"title": "Вознесение Сталина к власти",
"year": 1924,
"country": "СССР",
"century": 20,
"description": "Назначение генсеком и борьба с оппозицией.",
"participants": ["Сталин", "Троцкий", "Зиновьев"],
"lat": 55.7558,
"lng": 37.6176,
"difficulty": "medium"
},
{
"id": "first_five_year_plan_results",
"title": "Итоги первой пятилетки",
"year": 1932,
"country": "СССР",
"century": 20,
"description": "Быстрая индустриализация ценой голода.",
"participants": ["Сталин", "Куйбышев"],
"lat": 55.7558,
"lng": 37.6176,
"difficulty": "medium"
},
{
"id": "great_famine_ukraine",
"title": "Голодомор на Украине",
"year": 1932,
"country": "СССР",
"century": 20,
"description": "Массовый голод в результате коллективизации.",
"participants": ["Сталин", "Молотов"],
"lat": 50.4501,
"lng": 30.5234,
"difficulty": "hard"
},
{
"id": "second_five_year_plan",
"title": "Вторая пятилетка",
"year": 1933,
"country": "СССР",
"century": 20,
"description": "Акцент на тяжёлую промышленность.",
"participants": ["Сталин", "Куйбышев"],
"lat": 55.7558,
"lng": 37.6176,
"difficulty": "medium"
},
{
"id": "show_trials_zinoviev_kamenev",
"title": "Процессы над Зиновьевым и Каменевым",
"year": 1936,
"country": "СССР",
"century": 20,
"description": "Первые Московские процессы.",
"participants": ["Зиновьев", "Каменев", "Ежов"],
"lat": 55.7558,
"lng": 37.6176,
"difficulty": "hard"
},
{
"id": "bukharin_trial",
"title": "Процесс над Бухариным",
"year": 1938,
"country": "СССР",
"century": 20,
"description": "Последний крупный процесс Большого террора.",
"participants": ["Бухарин", "Ежов", "Сталин"],
"lat": 55.7558,
"lng": 37.6176,
"difficulty": "hard"
},
{
"id": "molotov_ribbentrop_pact_signing",
"title": "Подписание пакта Молотова–Риббентропа",
"year": 1939,
"country": "СССР",
"century": 20,
"description": "Договор о ненападении между СССР и Германией.",
"participants": ["Молотов", "Риббентроп"],
"lat": 55.7558,
"lng": 37.6176,
"difficulty": "medium"
},
{
"id": "soviet_invasion_finland",
"title": "Советское вторжение в Финляндию",
"year": 1939,
"country": "Финляндия",
"century": 20,
"description": "Начало Советско-финской войны.",
"participants": ["Сталин", "Маннергейм"],
"lat": 60.1699,
"lng": 24.9384,
"difficulty": "medium"
},
{
"id": "winter_war_end",
"title": "Окончание Советско-финской войны",
"year": 1940,
"country": "Финляндия",
"century": 20,
"description": "Мирный договор и территориальные уступки.",
"participants": ["Сталин", "Маннергейм"],
"lat": 60.1699,
"lng": 24.9384,
"difficulty": "medium"
},
{
"id": "soviet_annexation_baltic_states",
"title": "Присоединение Прибалтики к СССР",
"year": 1940,
"country": "СССР",
"century": 20,
"description": "Включение Литвы, Латвии и Эстонии в состав СССР.",
"participants": ["Сталин", "Молотов"],
"lat": 56.8796,
"lng": 24.6032,
"difficulty": "medium"
},
{
"id": "operation_barbarossa_start_date",
"title": "Дата начала операции «Барбаросса»",
"year": 1941,
"country": "СССР",
"century": 20,
"description": "22 июня 1941 года — начало Великой Отечественной войны.",
"participants": ["Гитлер", "Сталин"],
"lat": 55.7558,
"lng": 37.6176,
"difficulty": "easy"
},
{
"id": "defense_of_moscow_preparation",
"title": "Подготовка обороны Москвы",
"year": 1941,
"country": "СССР",
"century": 20,
"description": "Эвакуация промышленности и формирование резервов.",
"participants": ["Жуков", "Сталин"],
"lat": 55.7558,
"lng": 37.6176,
"difficulty": "medium"
},
{
"id": "moscow_counteroffensive",
"title": "Контрнаступление под Москвой",
"year": 1941,
"country": "СССР",
"century": 20,
"description": "Первое крупное поражение вермахта.",
"participants": ["Жуков", "Гудериан"],
"lat": 55.7558,
"lng": 37.6176,
"difficulty": "easy"
},
{
"id": "siege_of_leningrad_duration",
"title": "Продолжительность блокады Ленинграда",
"year": 1944,
"country": "СССР",
"century": 20,
"description": "872 дня осады города.",
"participants": ["Жуков", "Ленинградцы"],
"lat": 59.9343,
"lng": 30.3351,
"difficulty": "easy"
},
{
"id": "road_of_life",
"title": "Дорога жизни",
"year": 1942,
"country": "СССР",
"century": 20,
"description": "Ледовая дорога через Ладожское озеро для снабжения Ленинграда.",
"participants": ["Ленинградцы", "Жуков"],
"lat": 60.0000,
"lng": 31.0000,
"difficulty": "medium"
},
{
"id": "stalingrad_encirclement",
"title": "Окружение немецкой группировки под Сталинградом",
"year": 1942,
"country": "СССР",
"century": 20,
"description": "Операция «Уран» — окружение 6-й армии Паулюса.",
"participants": ["Чуйков", "Паулюс", "Жуков"],
"lat": 48.7080,
"lng": 44.5133,
"difficulty": "medium"
},
{
"id": "kursk_defense_phase",
"title": "Оборонительная фаза Курской битвы",
"year": 1943,
"country": "СССР",
"century": 20,
"description": "Создание глубоко эшелонированной обороны.",
"participants": ["Рокоссовский", "Манштейн"],
"lat": 51.7373,
"lng": 36.1874,
"difficulty": "hard"
},
{
"id": "kursk_offensive_phase",
"title": "Наступательная фаза Курской битвы",
"year": 1943,
"country": "СССР",
"century": 20,
"description": "Операции «Кутузов» и «Румянцев».",
"participants": ["Рокоссовский", "Ватутин", "Манштейн"],
"lat": 51.7373,
"lng": 36.1874,
"difficulty": "hard"
},
{
"id": "liberation_of_kiev",
"title": "Освобождение Киева",
"year": 1943,
"country": "СССР",
"century": 20,
"description": "Возвращение столицы Украины под контроль СССР.",
"participants": ["Ватутин", "Манштейн"],
"lat": 50.4501,
"lng": 30.5234,
"difficulty": "medium"
},
{
"id": "yalta_conference_preparations",
"title": "Подготовка Ялтинской конференции",
"year": 1945,
"country": "СССР",
"century": 20,
"description": "Дипломатические переговоры перед встречей «Большой тройки».",
"participants": ["Сталин", "Рузвельт", "Черчилль"],
"lat": 44.4986,
"lng": 34.1611,
"difficulty": "hard"
},
{
"id": "berlin_operation",
"title": "Берлинская стратегическая наступательная операция",
"year": 1945,
"country": "Германия",
"century": 20,
"description": "Финальное наступление Красной армии на Берлин.",
"participants": ["Жуков", "Конев", "Гитлер"],
"lat": 52.5200,
"lng": 13.4050,
"difficulty": "medium"
},
{
"id": "surrender_of_germany",
"title": "Капитуляция Германии",
"year": 1945,
"country": "Германия",
"century": 20,
"description": "Подписание акта о безоговорочной капитуляции.",
"participants": ["Кейтель", "Жуков", "Теддер"],
"lat": 52.5200,
"lng": 13.4050,
"difficulty": "easy"
},
{
"id": "potsdam_conference",
"title": "Потсдамская конференция",
"year": 1945,
"country": "Германия",
"century": 20,
"description": "Определение послевоенного устройства Германии.",
"participants": ["Сталин", "Трумэн", "Черчилль"],
"lat": 52.3906,
"lng": 13.0645,
"difficulty": "medium"
},
{
"id": "atomic_bomb_hiroshima",
"title": "Атомная бомба на Хиросиме",
"year": 1945,
"country": "Япония",
"century": 20,
"description": "«Малыш» — первый боевой ядерный удар.",
"participants": ["Трумэн", "Хирото Сигэру"],
"lat": 34.3853,
"lng": 132.4553,
"difficulty": "easy"
},
{
"id": "atomic_bomb_nagasaki",
"title": "Атомная бомба на Нагасаки",
"year": 1945,
"country": "Япония",
"century": 20,
"description": "«Толстяк» — второй ядерный удар.",
"participants": ["Трумэн", "Хирото Сигэру"],
"lat": 32.7503,
"lng": 129.8779,
"difficulty": "easy"
},
{
"id": "japanese_surrender",
"title": "Капитуляция Японии",
"year": 1945,
"country": "Япония",
"century": 20,
"description": "Окончание Второй мировой войны.",
"participants": ["Хирото Сигэру", "Макартур"],
"lat": 35.6895,
"lng": 139.6917,
"difficulty": "easy"
},
{
"id": "truman_doctrine",
"title": "Доктрина Трумэна",
"year": 1947,
"country": "США",
"century": 20,
"description": "Политика сдерживания коммунизма.",
"participants": ["Трумэн", "Маршалл"],
"lat": 38.8951,
"lng": -77.0369,
"difficulty": "medium"
},
{
"id": "cominform_creation",
"title": "Создание Коминформа",
"year": 1947,
"country": "СССР",
"century": 20,
"description": "Организация для координации коммунистических партий.",
"participants": ["Сталин", "Жданов"],
"lat": 55.7558,
"lng": 37.6176,
"difficulty": "hard"
},
{
"id": "czechoslovak_coup_1948",
"title": "Февральский переворот в Чехословакии",
"year": 1948,
"country": "Чехословакия",
"century": 20,
"description": "Установление коммунистического режима.",
"participants": ["Готвальд", "Бенеш"],
"lat": 50.0755,
"lng": 14.4378,
"difficulty": "hard"
},
{
"id": "berlin_blockade",
"title": "Берлинская блокада",
"year": 1948,
"country": "Германия",
"century": 20,
"description": "Советская блокада Западного Берлина.",
"participants": ["Сталин", "Трумэн"],
"lat": 52.5200,
"lng": 13.4050,
"difficulty": "medium"
},
{
"id": "berlin_airlift",
"title": "Берлинский воздушный мост",
"year": 1949,
"country": "Германия",
"century": 20,
"description": "Снабжение Западного Берлина по воздуху.",
"participants": ["Трумэн", "Сталин"],
"lat": 52.5200,
"lng": 13.4050,
"difficulty": "medium"
},
{
"id": "frg_creation",
"title": "Создание ФРГ",
"year": 1949,
"country": "Германия",
"century": 20,
"description": "Образование Западной Германии.",
"participants": ["Аденауэр", "Трумэн"],
"lat": 50.1109,
"lng": 8.6821,
"difficulty": "medium"
},
{
"id": "gdr_creation",
"title": "Создание ГДР",
"year": 1949,
"country": "Германия",
"century": 20,
"description": "Образование Восточной Германии.",
"participants": ["Ульбрихт", "Сталин"],
"lat": 52.5200,
"lng": 13.4050,
"difficulty": "medium"
},
{
"id": "korean_war_armistice",
"title": "Перемирие в Корейской войне",
"year": 1953,
"country": "Корея",
"century": 20,
"description": "Подписание соглашения о перемирии.",
"participants": ["Ким Ир Сен", "Сынман Ри", "Макартур"],
"lat": 38.0000,
"lng": 126.0000,
"difficulty": "medium"
},
{
"id": "hungarian_uprising_suppression",
"title": "Подавление Венгерского восстания",
"year": 1956,
"country": "Венгрия",
"century": 20,
"description": "Ввод советских танков в Будапешт.",
"participants": ["Надь", "Хрущёв"],
"lat": 47.4979,
"lng": 19.0402,
"difficulty": "medium"
},
{
"id": "suez_crisis_end",
"title": "Окончание Суэцкого кризиса",
"year": 1956,
"country": "Египет",
"century": 20,
"description": "Отвод войск под давлением США и СССР.",
"participants": ["Насер", "Эден", "Хрущёв"],
"lat": 30.0444,
"lng": 31.2357,
"difficulty": "hard"
},
{
"id": "sputnik_3_launch",
"title": "Запуск «Спутника-3»",
"year": 1958,
"country": "СССР",
"century": 20,
"description": "Научная лаборатория в космосе.",
"participants": ["Королёв", "Хрущёв"],
"lat": 45.9645,
"lng": 63.3055,
"difficulty": "medium"
},
{
"id": "nasa_creation",
"title": "Создание NASA",
"year": 1958,
"country": "США",
"century": 20,
"description": "Национальное управление по аэронавтике и исследованию космического пространства.",
"participants": ["Эйзенхауэр", "Гленн"],
"lat": 38.8951,
"lng": -77.0369,
"difficulty": "medium"
},
{
"id": "luna_2_impact",
"title": "Падение «Луны-2» на Луну",
"year": 1959,
"country": "СССР",
"century": 20,
"description": "Первый аппарат, достигший поверхности Луны.",
"participants": ["Королёв", "Хрущёв"],
"lat": 45.9645,
"lng": 63.3055,
"difficulty": "medium"
},
{
"id": "bay_of_pigs_aftermath",
"title": "Последствия высадки в заливе Кочинос",
"year": 1961,
"country": "Куба",
"century": 20,
"description": "Укрепление режима Кастро и сближение с СССР.",
"participants": ["Кастро", "Кеннеди"],
"lat": 22.5000,
"lng": -81.0000,
"difficulty": "hard"
},
{
"id": "vostok_5_mission",
"title": "Полёт «Востока-5»",
"year": 1963,
"country": "СССР",
"century": 20,
"description": "Рекордный полёт Валерия Быковского.",
"participants": ["Быковский", "Королёв"],
"lat": 45.9645,
"lng": 63.3055,
"difficulty": "hard"
},
{
"id": "vietnam_war_tet_offensive",
"title": "Тетское наступление",
"year": 1968,
"country": "Вьетнам",
"century": 20,
"description": "Крупное наступление Вьетконга.",
"participants": ["Джонсон", "Хо Ши Мин"],
"lat": 16.0000,
"lng": 106.0000,
"difficulty": "medium"
},
{
"id": "prague_spring_reforms",
"title": "Реформы «Пражской весны»",
"year": 1968,
"country": "Чехословакия",
"century": 20,
"description": "«Социализм с человеческим лицом».",
"participants": ["Дубчек", "Брежнев"],
"lat": 50.0755,
"lng": 14.4378,
"difficulty": "medium"
},
{
"id": "charter_77",
"title": "Хартия-77",
"year": 1977,
"country": "Чехословакия",
"century": 20,
"description": "Движение за права человека в Чехословакии.",
"participants": ["Гавел", "Паточка"],
"lat": 50.0755,
"lng": 14.4378,
"difficulty": "hard"
},
{
"id": "afgan_war_soviet_withdrawal",
"title": "Вывод советских войск из Афганистана",
"year": 1989,
"country": "Афганистан",
"century": 20,
"description": "Окончание Афганской войны.",
"participants": ["Горбачёв", "Наджибулла"],
"lat": 34.5553,
"lng": 69.2075,
"difficulty": "easy"
},
{
"id": "chernobyl_cleanup",
"title": "Ликвидация последствий аварии в Чернобыле",
"year": 1986,
"country": "СССР",
"century": 20,
"description": "Работы «ликвидаторов» по зачистке зоны отчуждения.",
"participants": ["Легасов", "Щербина", "Горбачёв"],
"lat": 51.2700,
"lng": 30.2170,
"difficulty": "medium"
},
{
"id": "perestroika_economic_reforms",
"title": "Экономические реформы перестройки",
"year": 1987,
"country": "СССР",
"century": 20,
"description": "Закон о государственном предприятии и кооперации.",
"participants": ["Горбачёв", "Рыжков"],
"lat": 55.7558,
"lng": 37.6176,
"difficulty": "hard"
},
{
"id": "glasnost_cultural_changes",
"title": "Культурные изменения эпохи гласности",
"year": 1987,
"country": "СССР",
"century": 20,
"description": "Публикация запрещённых произведений.",
"participants": ["Горбачёв", "Яковлев"],
"lat": 55.7558,
"lng": 37.6176,
"difficulty": "medium"
},
{
"id": "fall_of_berlin_wall_process",
"title": "Процесс падения Берлинской стены",
"year": 1989,
"country": "ГДР",
"century": 20,
"description": "Массовые демонстрации и открытие границ.",
"participants": ["Хонеккер", "Коль", "Горбачёв"],
"lat": 52.5200,
"lng": 13.4050,
"difficulty": "easy"
},
{
"id": "dissolution_of_warsaw_pact",
"title": "Роспуск Организации Варшавского договора",
"year": 1991,
"country": "СССР",
"century": 20,
"description": "Окончание военного блока социалистических стран.",
"participants": ["Горбачёв", "Ельцин"],
"lat": 55.7558,
"lng": 37.6176,
"difficulty": "medium"
},
{
"id": "council_for_mutual_economic_assistance_dissolution",
"title": "Роспуск СЭВ",
"year": 1991,
"country": "СССР",
"century": 20,
"description": "Ликвидация экономического союза социалистических стран.",
"participants": ["Горбачёв", "Ельцин"],
"lat": 55.7558,
"lng": 37.6176,
"difficulty": "hard"
},
{
"id": "first_russian_revolution",
"title": "Первая русская революция",
"year": 1905,
"country": "Россия",
"century": 20,
"description": "Революционные события, начавшиеся с Кровавого воскресенья.",
"participants": ["Гапон", "Николай II", "Ленин"],
"lat": 59.9343,
"lng": 30.3351,
"difficulty": "medium"
},
{
"id": "potemkin_mutiny_spread",
"title": "Распространение восстания на «Потёмкине»",
"year": 1905,
"country": "Россия",
"century": 20,
"description": "Поддержка мятежа другими кораблями и городами.",
"participants": ["Матюшенко", "Трепов"],
"lat": 44.6167,
"lng": 33.5250,
"difficulty": "hard"
},
{
"id": "october_general_strike",
"title": "Октябрьская всеобщая забастовка",
"year": 1905,
"country": "Россия",
"century": 20,
"description": "Массовая забастовка по всей стране.",
"participants": ["Ленин", "Троцкий", "Витте"],
"lat": 55.7558,
"lng": 37.6176,
"difficulty": "hard"
},
{
"id": "first_duma_elections",
"title": "Выборы в Первую Государственную думу",
"year": 1906,
"country": "Россия",
"century": 20,
"description": "Первые выборы в российский парламент.",
"participants": ["Николай II", "Столыпин"],
"lat": 55.7558,
"lng": 37.6176,
"difficulty": "hard"
},
{
"id": "second_duma_elections",
"title": "Выборы во Вторую Государственную думу",
"year": 1907,
"country": "Россия",
"century": 20,
"description": "Изменённая избирательная система после роспуска Первой думы.",
"participants": ["Николай II", "Столыпин"],
"lat": 55.7558,
"lng": 37.6176,
"difficulty": "hard"
},
{
"id": "third_duma_elections",
"title": "Выборы в Третью Государственную думу",
"year": 1907,
"country": "Россия",
"century": 20,
"description": "Новые выборы после изменения избирательного закона.",
"participants": ["Николай II", "Столыпин"],
"lat": 55.7558,
"lng": 37.6176,
"difficulty": "hard"
},
{
"id": "fourth_duma_elections",
"title": "Выборы в Четвёртую Государственную думу",
"year": 1912,
"country": "Россия",
"century": 20,
"description": "Последние выборы до революции 1917 года.",
"participants": ["Николай II", "Родзянко"],
"lat": 55.7558,
"lng": 37.6176,
"difficulty": "hard"
},
{
"id": "assassination_of_stolypin",
"title": "Убийство П.А. Столыпина в Киеве",
"year": 1911,
"country": "Россия",
"century": 20,
"description": "Премьер-министр убит в оперном театре.",
"participants": ["Столыпин", "Богров"],
"lat": 50.4501,
"lng": 30.5234,
"difficulty": "medium"
},
{
"id": "balkan_wars_outcomes",
"title": "Итоги Балканских войн",
"year": 1913,
"country": "Сербия",
"century": 20,
"description": "Перераспределение территорий на Балканах.",
"participants": ["Никола Пашич", "Фердинанд I"],
"lat": 44.8167,
"lng": 20.4667,
"difficulty": "hard"
},
{
"id": "franz_ferdinand_assassination_consequences",
"title": "Последствия убийства Франца Фердинанда",
"year": 1914,
"country": "Австро-Венгрия",
"century": 20,
"description": "Ультиматум Сербии и начало мировой войны.",
"participants": ["Гаврило Принцип", "Франц Иосиф I"],
"lat": 43.8563,
"lng": 18.4131,
"difficulty": "medium"
},
{
"id": "tannenberg_battle_aftermath",
"title": "Последствия битвы при Танненберге",
"year": 1914,
"country": "Германия",
"century": 20,
"description": "Гибель 2-й русской армии и генерала Самсонова.",
"participants": ["Самсонов", "Гинденбург"],
"lat": 53.5000,
"lng": 20.5000,
"difficulty": "hard"
},
{
"id": "gallipoli_campaign_aftermath",
"title": "Итоги Галлипольской операции",
"year": 1916,
"country": "Османская империя",
"century": 20,
"description": "Отступление союзных войск и отставка Черчилля.",
"participants": ["Черчилль", "Энвер-паша"],
"lat": 40.4000,
"lng": 26.7000,
"difficulty": "hard"
},
{
"id": "lusitania_sinking_consequences",
"title": "Последствия гибели «Лузитании»",
"year": 1915,
"country": "Ирландия",
"century": 20,
"description": "Усиление антигерманских настроений в США.",
"participants": ["Вильгельм II", "Уилсон"],
"lat": 51.4500,
"lng": -8.3000,
"difficulty": "medium"
},
{
"id": "verdun_battle_aftermath",
"title": "Итоги битвы при Вердене",
"year": 1916,
"country": "Франция",
"century": 20,
"description": "Огромные потери без стратегического результата.",
"participants": ["Петен", "Фалькенхайн"],
"lat": 49.1500,
"lng": 5.3000,
"difficulty": "medium"
},
{
"id": "somme_battle_aftermath",
"title": "Итоги битвы на Сомме",
"year": 1916,
"country": "Франция",
"century": 20,
"description": "Крупнейшее сражение Первой мировой войны по числу жертв.",
"participants": ["Хоуг", "Фош"],
"lat": 49.9000,
"lng": 2.5000,
"difficulty": "medium"
},
{
"id": "february_revolution_outcomes",
"title": "Итоги Февральской революции",
"year": 1917,
"country": "Россия",
"century": 20,
"description": "Двоевластие: Временное правительство и Советы.",
"participants": ["Керенский", "Николай II", "Ленин"],
"lat": 59.9343,
"lng": 30.3351,
"difficulty": "medium"
},
{
"id": "april_theses_impact",
"title": "Влияние Апрельских тезисов Ленина",
"year": 1917,
"country": "Россия",
"century": 20,
"description": "Радикализация большевиков и подготовка к Октябрю.",
"participants": ["Ленин", "Троцкий"],
"lat": 59.9343,
"lng": 30.3351,
"difficulty": "hard"
},
{
"id": "july_days_suppression",
"title": "Подавление Июльских дней",
"year": 1917,
"country": "Россия",
"century": 20,
"description": "Арест большевистских лидеров и запрет на демонстрации.",
"participants": ["Ленин", "Керенский"],
"lat": 59.9343,
"lng": 30.3351,
"difficulty": "hard"
},
{
"id": "kornilov_affair_outcomes",
"title": "Итоги Корниловщины",
"year": 1917,
"country": "Россия",
"century": 20,
"description": "Укрепление позиций большевиков и ослабление Временного правительства.",
"participants": ["Корнилов", "Керенский", "Ленин"],
"lat": 55.7558,
"lng": 37.6176,
"difficulty": "hard"
},
{
"id": "brest_lithuania_treaty_signing",
"title": "Подписание Брестского мира",
"year": 1918,
"country": "СССР",
"century": 20,
"description": "Выход России из войны ценой территориальных потерь.",
"participants": ["Троцкий", "Гофман"],
"lat": 52.0975,
"lng": 23.6850,
"difficulty": "medium"
},
{
"id": "red_terror_escalation",
"title": "Эскалация Красного террора",
"year": 1918,
"country": "СССР",
"century": 20,
"description": "Массовые расстрелы «врагов революции».",
"participants": ["Дзержинский", "Ленин"],
"lat": 55.7558,
"lng": 37.6176,
"difficulty": "hard"
},
{
"id": "white_army_alliances",
"title": "Союзы Белой армии с иностранными державами",
"year": 1918,
"country": "Россия",
"century": 20,
"description": "Поддержка Антанты белогвардейцам.",
"participants": ["Деникин", "Колчак", "Ллойд Джордж"],
"lat": 45.0000,
"lng": 42.0000,
"difficulty": "hard"
},
{
"id": "war_communism_consequences",
"title": "Последствия военного коммунизма",
"year": 1920,
"country": "СССР",
"century": 20,
"description": "Экономический кризис и крестьянские восстания.",
"participants": ["Ленин", "Троцкий"],
"lat": 55.7558,
"lng": 37.6176,
"difficulty": "hard"
},
{
"id": "polish_soviet_war_outcomes",
"title": "Итоги Польско-советской войны",
"year": 1921,
"country": "Польша",
"century": 20,
"description": "Рижский мирный договор и граница по Западному Бугу.",
"participants": ["Пилсудский", "Тухачевский"],
"lat": 52.2297,
"lng": 21.0122,
"difficulty": "hard"
},
{
"id": "new_economic_policy_implementation",
"title": "Введение Новой экономической политики",
"year": 1921,
"country": "СССР",
"century": 20,
"description": "Замена продразвёрстки продналогом.",
"participants": ["Ленин", "Бухарин"],
"lat": 55.7558,
"lng": 37.6176,
"difficulty": "medium"
},
{
"id": "lenin_death_political_consequences",
"title": "Политические последствия смерти Ленина",
"year": 1924,
"country": "СССР",
"century": 20,
"description": "Борьба за власть между Сталиным и Троцким.",
"participants": ["Ленин", "Сталин", "Троцкий"],
"lat": 55.7558,
"lng": 37.6176,
"difficulty": "medium"
},
{
"id": "trotsky_exile_consequences",
"title": "Последствия изгнания Троцкого",
"year": 1929,
"country": "СССР",
"century": 20,
"description": "Укрепление власти Сталина и ликвидация оппозиции.",
"participants": ["Троцкий", "Сталин"],
"lat": 55.7558,
"lng": 37.6176,
"difficulty": "hard"
},
{
"id": "first_five_year_plan_industrialization",
"title": "Индустриализация по первой пятилетке",
"year": 1928,
"country": "СССР",
"century": 20,
"description": "Строительство заводов и фабрик по всему СССР.",
"participants": ["Сталин", "Куйбышев"],
"lat": 55.7558,
"lng": 37.6176,
"difficulty": "medium"
},
{
"id": "collectivization_consequences",
"title": "Последствия коллективизации",
"year": 1930,
"country": "СССР",
"century": 20,
"description": "Голод и сопротивление крестьян.",
"participants": ["Сталин", "Молотов"],
"lat": 55.7558,
"lng": 37.6176,
"difficulty": "hard"
},
{
"id": "dekulakization_consequences",
"title": "Итоги раскулачивания",
"year": 1930,
"country": "СССР",
"century": 20,
"description": "Массовые депортации зажиточных крестьян.",
"participants": ["Сталин", "Молотов"],
"lat": 55.7558,
"lng": 37.6176,
"difficulty": "hard"
},
{
"id": "great_purge_victims",
"title": "Жертвы Большого террора",
"year": 1937,
"country": "СССР",
"century": 20,
"description": "Репрессии против партийных, военных и интеллигенции.",
"participants": ["Сталин", "Ежов", "Бухарин"],
"lat": 55.7558,
"lng": 37.6176,
"difficulty": "hard"
},
{
"id": "moscow_trials_defendants",
"title": "Обвиняемые Московских процессов",
"year": 1936,
"country": "СССР",
"century": 20,
"description": "Показательные процессы над бывшими революционерами.",
"participants": ["Бухарин", "Зиновьев", "Каменев"],
"lat": 55.7558,
"lng": 37.6176,
"difficulty": "hard"
},
{
"id": "molotov_ribbentrop_pact_territorial_division",
"title": "Территориальное разделение по пакту Молотова–Риббентропа",
"year": 1939,
"country": "СССР",
"century": 20,
"description": "Раздел Восточной Европы на сферы влияния.",
"participants": ["Молотов", "Риббентроп"],
"lat": 55.7558,
"lng": 37.6176,
"difficulty": "hard"
},
{
"id": "soviet_invasion_poland_consequences",
"title": "Последствия вторжения СССР в Польшу",
"year": 1939,
"country": "Польша",
"century": 20,
"description": "Оккупация восточных территорий и репрессии.",
"participants": ["Сталин", "Рыдз-Смиглы"],
"lat": 52.0000,
"lng": 24.0000,
"difficulty": "medium"
},
{
"id": "katyn_massacre_discovery",
"title": "Обнаружение Катынского расстрела",
"year": 1943,
"country": "СССР",
"century": 20,
"description": "Находка массовых захоронений польских офицеров.",
"participants": ["Берия", "Сталин"],
"lat": 54.7833,
"lng": 33.1167,
"difficulty": "hard"
},
{
"id": "soviet_finnish_war_military_lessons",
"title": "Военные уроки Советско-финской войны",
"year": 1940,
"country": "СССР",
"century": 20,
"description": "Реформы Красной армии перед Великой Отечественной войной.",
"participants": ["Сталин", "Маннергейм"],
"lat": 60.1699,
"lng": 24.9384,
"difficulty": "hard"
},
{
"id": "operation_barbarossa_strategic_goals",
"title": "Стратегические цели операции «Барбаросса»",
"year": 1941,
"country": "Германия",
"century": 20,
"description": "План молниеносной войны и уничтожения СССР.",
"participants": ["Гитлер", "Гальдер"],
"lat": 52.5200,
"lng": 13.4050,
"difficulty": "hard"
},
{
"id": "defense_of_brest_fortress_heroism",
"title": "Героизм защитников Брестской крепости",
"year": 1941,
"country": "СССР",
"century": 20,
"description": "Символ стойкости в первые дни войны.",
"participants": ["Жаворонков", "Фомин"],
"lat": 52.0975,
"lng": 23.6850,
"difficulty": "easy"
},
{
"id": "siege_of_odessa_heroism",
"title": "Героизм защитников Одессы",
"year": 1941,
"country": "СССР",
"century": 20,
"description": "Успешная оборона и эвакуация Черноморского флота.",
"participants": ["Ласкин", "Антонеску"],
"lat": 46.4825,
"lng": 30.7233,
"difficulty": "medium"
},
{
"id": "defense_of_sevastopol_heroism",
"title": "Героизм защитников Севастополя",
"year": 1942,
"country": "СССР",
"century": 20,
"description": "250 дней обороны города-крепости.",
"participants": ["Октябрьский", "Манштейн"],
"lat": 44.6167,
"lng": 33.5250,
"difficulty": "medium"
},
{
"id": "battle_of_kharkov_outcomes",
"title": "Итоги битвы за Харьков",
"year": 1942,
"country": "СССР",
"century": 20,
"description": "Крупное поражение Красной армии весной 1942 года.",
"participants": ["Тимошенко", "Паулюс"],
"lat": 49.9920,
"lng": 36.2304,
"difficulty": "hard"
},
{
"id": "caucasus_campaign_outcomes",
"title": "Итоги битвы за Кавказ",
"year": 1943,
"country": "СССР",
"century": 20,
"description": "Отражение немецкого наступления на нефть.",
"participants": ["Малая Земля", "Лист"],
"lat": 43.0000,
"lng": 44.0000,
"difficulty": "hard"
},
{
"id": "el_alamein_battle_outcomes",
"title": "Итоги битвы при Эль-Аламейне",
"year": 1942,
"country": "Египет",
"century": 20,
"description": "Перелом в Северной Африке в пользу союзников.",
"participants": ["Монтгомери", "Роммель"],
"lat": 30.8500,
"lng": 28.8000,
"difficulty": "medium"
},
{
"id": "stalingrad_surrender_consequences",
"title": "Последствия капитуляции под Сталинградом",
"year": 1943,
"country": "СССР",
"century": 20,
"description": "Перелом в войне и начало освобождения Европы.",
"participants": ["Паулюс", "Чуйков"],
"lat": 48.7080,
"lng": 44.5133,
"difficulty": "easy"
},
{
"id": "tehran_conference_decisions",
"title": "Решения Тегеранской конференции",
"year": 1943,
"country": "Иран",
"century": 20,
"description": "План открытия второго фронта и послевоенного устройства.",
"participants": ["Сталин", "Рузвельт", "Черчилль"],
"lat": 35.6892,
"lng": 51.3890,
"difficulty": "medium"
},
{
"id": "belorussian_operation_outcomes",
"title": "Итоги операции «Багратион»",
"year": 1944,
"country": "СССР",
"century": 20,
"description": "Полное освобождение Белоруссии и выход к границам Германии.",
"participants": ["Рокоссовский", "Баграмян"],
"lat": 53.9000,
"lng": 27.5667,
"difficulty": "medium"
},
{
"id": "normandy_landing_consequences",
"title": "Последствия высадки в Нормандии",
"year": 1944,
"country": "Франция",
"century": 20,
"description": "Открытие второго фронта и ускорение разгрома Германии.",
"participants": ["Эйзенхауэр", "Монтгомери"],
"lat": 49.4000,
"lng": -1.3000,
"difficulty": "easy"
},
{
"id": "varsaw_uprising_suppression",
"title": "Подавление Варшавского восстания",
"year": 1944,
"country": "Польша",
"century": 20,
"description": "Разрушение Варшавы и установление просоветского режима.",
"participants": ["Бор-Коморовский", "Химmler"],
"lat": 52.2297,
"lng": 21.0122,
"difficulty": "hard"
},
{
"id": "yalta_conference_territorial_decisions",
"title": "Территориальные решения Ялтинской конференции",
"year": 1945,
"country": "СССР",
"century": 20,
"description": "Передел Европы после войны.",
"participants": ["Сталин", "Рузвельт", "Черчилль"],
"lat": 44.4986,
"lng": 34.1611,
"difficulty": "medium"
},
{
"id": "berlin_battle_outcomes",
"title": "Итоги битвы за Берлин",
"year": 1945,
"country": "Германия",
"century": 20,
"description": "Падение Третьего рейха и самоубийство Гитлера.",
"participants": ["Жуков", "Гитлер", "Кёниг"],
"lat": 52.5200,
"lng": 13.4050,
"difficulty": "easy"
},
{
"id": "nuremberg_trials_defendants",
"title": "Обвиняемые Нюрнбергского процесса",
"year": 1945,
"country": "Германия",
"century": 20,
"description": "Суд над главными нацистскими преступниками.",
"participants": ["Гёринг", "Ширах", "Роберт Джексон"],
"lat": 49.4500,
"lng": 11.0833,
"difficulty": "medium"
},
{
"id": "marshall_plan_implementation",
"title": "Реализация плана Маршалла",
"year": 1948,
"country": "США",
"century": 20,
"description": "Экономическая помощь Европе для восстановления.",
"participants": ["Маршалл", "Трумэн"],
"lat": 38.8951,
"lng": -77.0369,
"difficulty": "medium"
},
{
"id": "nato_creation_member_states",
"title": "Страны — основатели НАТО",
"year": 1949,
"country": "США",
"century": 20,
"description": "Создание военно-политического блока.",
"participants": ["Трумэн", "Бидл"],
"lat": 38.8951,
"lng": -77.0369,
"difficulty": "medium"
},
{
"id": "warsaw_pact_member_states",
"title": "Страны — участницы Варшавского договора",
"year": 1955,
"country": "СССР",
"century": 20,
"description": "Социалистический военный блок.",
"participants": ["Хрущёв", "Герек"],
"lat": 52.2297,
"lng": 21.0122,
"difficulty": "medium"
},
{
"id": "hungarian_uprising_causes",
"title": "Причины Венгерского восстания",
"year": 1956,
"country": "Венгрия",
"century": 20,
"description": "Недовольство советской оккупацией и тоталитаризмом.",
"participants": ["Надь", "Хрущёв"],
"lat": 47.4979,
"lng": 19.0402,
"difficulty": "hard"
},
{
"id": "suez_crisis_causes",
"title": "Причины Суэцкого кризиса",
"year": 1956,
"country": "Египет",
"century": 20,
"description": "Национализация канала и колониальные интересы.",
"participants": ["Насер", "Эден", "Моллет"],
"lat": 30.0444,
"lng": 31.2357,
"difficulty": "hard"
},
{
"id": "sputnik_2_science_results",
"title": "Научные результаты полёта «Спутника-2»",
"year": 1957,
"country": "СССР",
"century": 20,
"description": "Изучение космического пространства и живого организма.",
"participants": ["Королёв", "Лайка"],
"lat": 45.9645,
"lng": 63.3055,
"difficulty": "medium"
},
{
"id": "luna_1_science_results",
"title": "Научные результаты полёта «Луны-1»",
"year": 1959,
"country": "СССР",
"century": 20,
"description": "Изучение межпланетного пространства.",
"participants": ["Королёв", "Хрущёв"],
"lat": 45.9645,
"lng": 63.3055,
"difficulty": "medium"
},
{
"id": "cuban_revolution_consequences",
"title": "Последствия Кубинской революции",
"year": 1959,
"country": "Куба",
"century": 20,
"description": "Установление социалистического режима и сближение с СССР.",
"participants": ["Кастро", "Батиста"],
"lat": 23.1136,
"lng": -82.3666,
"difficulty": "medium"
},
{
"id": "u2_incident_diplomatic_consequences",
"title": "Дипломатические последствия инцидента с U-2",
"year": 1960,
"country": "СССР",
"century": 20,
"description": "Срыв Парижской конференции и ухудшение отношений.",
"participants": ["Пауэрс", "Хрущёв", "Эйзенхауэр"],
"lat": 55.7558,
"lng": 37.6176,
"difficulty": "hard"
},
{
"id": "berlin_wall_construction_reasons",
"title": "Причины строительства Берлинской стены",
"year": 1961,
"country": "ГДР",
"century": 20,
"description": "Массовый отток населения из Восточной Германии.",
"participants": ["Ульбрихт", "Хрущёв", "Кеннеди"],
"lat": 52.5200,
"lng": 13.4050,
"difficulty": "medium"
},
{
"id": "vostok_2_science_results",
"title": "Научные результаты полёта «Востока-2»",
"year": 1961,
"country": "СССР",
"century": 20,
"description": "Изучение длительного пребывания человека в космосе.",
"participants": ["Титов", "Королёв"],
"lat": 45.9645,
"lng": 63.3055,
"difficulty": "medium"
},
{
"id": "vienna_summit_outcomes",
"title": "Итоги Венской встречи Хрущёва и Кеннеди",
"year": 1961,
"country": "Австрия",
"century": 20,
"description": "Укрепление позиций СССР в Берлине и Кубе.",
"participants": ["Хрущёв", "Кеннеди"],
"lat": 48.2082,
"lng": 16.3738,
"difficulty": "medium"
},
{
"id": "bay_of_pigs_invasion_planning",
"title": "Планирование высадки в заливе Кочинос",
"year": 1961,
"country": "США",
"century": 20,
"description": "Операция ЦРУ по свержению Кастро.",
"participants": ["Кеннеди", "Кастро"],
"lat": 22.5000,
"lng": -81.0000,
"difficulty": "hard"
},
{
"id": "vostok_3_and_4_science_results",
"title": "Научные результаты полётов «Восток-3» и «Восток-4»",
"year": 1962,
"country": "СССР",
"century": 20,
"description": "Изучение группового полёта в космосе.",
"participants": ["Николаев", "Попович", "Королёв"],
"lat": 45.9645,
"lng": 63.3055,
"difficulty": "hard"
},
{
"id": "moscow_hotline_technical_details",
"title": "Технические детали «горячей линии» Вашингтон—Москва",
"year": 1963,
"country": "США",
"century": 20,
"description": "Создание прямой связи для предотвращения ядерной войны.",
"participants": ["Хрущёв", "Кеннеди"],
"lat": 38.8951,
"lng": -77.0369,
"difficulty": "hard"
},
{
"id": "kennedy_assassination_conspiracy_theories",
"title": "Теории заговора вокруг убийства Кеннеди",
"year": 1963,
"country": "США",
"century": 20,
"description": "Множество версий причастности различных сил.",
"participants": ["Кеннеди", "Осуальд"],
"lat": 32.7767,
"lng": -96.7970,
"difficulty": "hard"
},
{
"id": "vostok_6_science_results",
"title": "Научные результаты полёта Валентины Терешковой",
"year": 1963,
"country": "СССР",
"century": 20,
"description": "Изучение влияния космоса на женский организм.",
"participants": ["Терешкова", "Королёв"],
"lat": 45.9645,
"lng": 63.3055,
"difficulty": "medium"
},
{
"id": "vietnam_war_escalation_reasons",
"title": "Причины эскалации войны во Вьетнаме",
"year": 1964,
"country": "Вьетнам",
"century": 20,
"description": "Тонкинский инцидент и решение Конгресса США.",
"participants": ["Джонсон", "Хо Ши Мин"],
"lat": 16.0000,
"lng": 106.0000,
"difficulty": "medium"
},
{
"id": "kosygin_reforms_economic_details",
"title": "Экономические детали реформы Косыгина",
"year": 1965,
"country": "СССР",
"century": 20,
"description": "Введение хозрасчёта и прибыли на предприятиях.",
"participants": ["Косыгин", "Брежнев"],
"lat": 55.7558,
"lng": 37.6176,
"difficulty": "hard"
},
{
"id": "six_day_war_causes",
"title": "Причины Шестидневной войны",
"year": 1967,
"country": "Израиль",
"century": 20,
"description": "Напряжённость на Ближнем Востоке и блокада Тиранского пролива.",
"participants": ["Эшколь", "Насер"],
"lat": 31.7683,
"lng": 35.2137,
"difficulty": "medium"
},
{
"id": "treaty_on_outer_space_provisions",
"title": "Положения Договора о космосе",
"year": 1967,
"country": "США",
"century": 20,
"description": "Запрет на милитаризацию космоса.",
"participants": ["Джонсон", "Косыгин"],
"lat": 38.8951,
"lng": -77.0369,
"difficulty": "hard"
},
{
"id": "prague_spring_suppression_reasons",
"title": "Причины подавления «Пражской весны»",
"year": 1968,
"country": "Чехословакия",
"century": 20,
"description": "Страх СССР перед выходом Чехословакии из сферы влияния.",
"participants": ["Дубчек", "Брежнев"],
"lat": 50.0755,
"lng": 14.4378,
"difficulty": "medium"
},
{
"id": "nuclear_non_proliferation_treaty_signatories",
"title": "Страны — подписавшие Договор о нераспространении",
"year": 1968,
"country": "США",
"century": 20,
"description": "Основные ядерные и неядерные державы.",
"participants": ["Джонсон", "Косыгин"],
"lat": 38.8951,
"lng": -77.0369,
"difficulty": "hard"
},
{
"id": "apollo_8_science_results",
"title": "Научные результаты полёта «Аполлона-8»",
"year": 1968,
"country": "США",
"century": 20,
"description": "Фотографирование обратной стороны Луны.",
"participants": ["Борман", "Ловелл", "Андерс"],
"lat": 28.5729,
"lng": -80.6490,
"difficulty": "medium"
},
{
"id": "woodstock_festival_cultural_impact",
"title": "Культурное влияние фестиваля Вудсток",
"year": 1969,
"country": "США",
"century": 20,
"description": "Символ движения хиппи и антивоенных настроений.",
"participants": ["Хендрикс", "Джоплин"],
"lat": 41.7500,
"lng": -74.5000,
"difficulty": "easy"
},
{
"id": "moon_landing_technical_details",
"title": "Технические детали высадки на Луну",
"year": 1969,
"country": "США",
"century": 20,
"description": "Работа модуля «Интерпрайз» и лунного модуля.",
"participants": ["Армстронг", "Олдрин", "Коллинз"],
"lat": 28.5729,
"lng": -80.6490,
"difficulty": "medium"
},
{
"id": "soyuz_4_and_5_technical_details",
"title": "Технические детали стыковки «Союз-4» и «Союз-5»",
"year": 1969,
"country": "СССР",
"century": 20,
"description": "Первый перехват космонавтов в открытом космосе.",
"participants": ["Шаталов", "Волков", "Елисеев"],
"lat": 45.9645,
"lng": 63.3055,
"difficulty": "hard"
},
{
"id": "chile_allende_election_consequences",
"title": "Последствия избрания Сальвадора Альенде",
"year": 1970,
"country": "Чили",
"century": 20,
"description": "Национализация промышленности и конфликт с США.",
"participants": ["Альенде", "Никсон"],
"lat": -33.4500,
"lng": -70.6667,
"difficulty": "hard"
},
{
"id": "sadat_visit_israel_diplomatic_impact",
"title": "Дипломатическое влияние визита Садата в Израиль",
"year": 1977,
"country": "Израиль",
"century": 20,
"description": "Подготовка к Кэмп-Дэвидскому соглашению.",
"participants": ["Садат", "Бегин"],
"lat": 31.7683,
"lng": 35.2137,
"difficulty": "hard"
},
{
"id": "three_mile_island_accident_consequences",
"title": "Последствия аварии на острове Три-Майл",
"year": 1979,
"country": "США",
"century": 20,
"description": "Реформы в ядерной энергетике США.",
"participants": ["Картер", "Метцгер"],
"lat": 40.1500,
"lng": -76.7200,
"difficulty": "medium"
},
{
"id": "iranian_revolution_consequences",
"title": "Последствия исламской революции в Иране",
"year": 1979,
"country": "Иран",
"century": 20,
"description": "Установление исламской республики и захват заложников в США.",
"participants": ["Хомейни", "Пехлеви"],
"lat": 35.6892,
"lng": 51.3890,
"difficulty": "medium"
},
{
"id": "salyut_1_science_results",
"title": "Научные результаты работы «Салюта-1»",
"year": 1971,
"country": "СССР",
"century": 20,
"description": "Первые эксперименты на орбитальной станции.",
"participants": ["Добровольский", "Королёв"],
"lat": 45.9645,
"lng": 63.3055,
"difficulty": "medium"
},
{
"id": "bangladesh_liberation_war_consequences",
"title": "Последствия войны за независимость Бангладеш",
"year": 1971,
"country": "Бангладеш",
"century": 20,
"description": "Создание нового государства и гуманитарный кризис.",
"participants": ["Муджибур Рахман", "Индира Ганди"],
"lat": 23.8103,
"lng": 90.4125,
"difficulty": "hard"
},
{
"id": "watergate_scandal_consequences",
"title": "Последствия Уотергейтского скандала",
"year": 1974,
"country": "США",
"century": 20,
"description": "Отставка Никсона и реформы в политике.",
"participants": ["Никсон", "Джон Дин"],
"lat": 38.8951,
"lng": -77.0369,
"difficulty": "medium"
},
{
"id": "détente_summit_outcomes",
"title": "Итоги саммита разрядки",
"year": 1972,
"country": "США",
"century": 20,
"description": "Подписание договоров ОСВ-1 и ABM.",
"participants": ["Никсон", "Брежнев"],
"lat": 38.8951,
"lng": -77.0369,
"difficulty": "hard"
},
{
"id": "yom_kippur_war_consequences",
"title": "Последствия Войны Судного дня",
"year": 1973,
"country": "Израиль",
"century": 20,
"description": "Нефтяной кризис и переговоры о мире.",
"participants": ["Садат", "Бегин", "Асад"],
"lat": 31.7683,
"lng": 35.2137,
"difficulty": "medium"
},
{
"id": "oil_crisis_economic_impact",
"title": "Экономические последствия нефтяного кризиса",
"year": 1973,
"country": "Саудовская Аравия",
"century": 20,
"description": "Рецессия в западных странах и инфляция.",
"participants": ["Фейсал", "Киссинджер"],
"lat": 24.7136,
"lng": 46.6753,
"difficulty": "medium"
},
{
"id": "apollo_soyuz_test_project_technical_details",
"title": "Технические детали экспериментального полёта «Аполлон»—«Союз»",
"year": 1975,
"country": "США",
"century": 20,
"description": "Создание стыковочного модуля и совместные эксперименты.",
"participants": ["Стэффорд", "Леонов"],
"lat": 28.5729,
"lng": -80.6490,
"difficulty": "hard"
},
{
"id": "helsinki_accords_provisions",
"title": "Положения Хельсинкских соглашений",
"year": 1975,
"country": "Финляндия",
"century": 20,
"description": "Три корзины: безопасность, сотрудничество, права человека.",
"participants": ["Форд", "Брежнев"],
"lat": 60.1699,
"lng": 24.9384,
"difficulty": "hard"
},
{
"id": "angolan_civil_war_consequences",
"title": "Последствия гражданской войны в Анголе",
"year": 1975,
"country": "Ангола",
"century": 20,
"description": "Установление марксистского режима и вовлечение Кубы.",
"participants": ["Нето", "Савимби"],
"lat": -8.8368,
"lng": 13.2343,
"difficulty": "hard"
},
{
"id": "vietnam_war_end_consequences",
"title": "Последствия окончания войны во Вьетнаме",
"year": 1975,
"country": "Вьетнам",
"century": 20,
"description": "Воссоединение страны и беженцы-«лодочники».",
"participants": ["Зием", "Тань"],
"lat": 10.8231,
"lng": 106.6297,
"difficulty": "easy"
},
{
"id": "indira_gandhi_assassination_consequences",
"title": "Последствия убийства Индиры Ганди",
"year": 1984,
"country": "Индия",
"century": 20,
"description": "Погромы сикхов и политический кризис.",
"participants": ["Индира Ганди", "Бейнт Сингх"],
"lat": 28.6139,
"lng": 77.2090,
"difficulty": "medium"
},
{
"id": "glasnost_announcement_political_impact",
"title": "Политическое влияние объявления гласности",
"year": 1986,
"country": "СССР",
"century": 20,
"description": "Рост национальных движений и критика власти.",
"participants": ["Горбачёв", "Яковлев"],
"lat": 55.7558,
"lng": 37.6176,
"difficulty": "medium"
},
{
"id": "reykjavik_summit_outcomes",
"title": "Итоги Рейкьявикской встречи Горбачёва и Рейгана",
"year": 1986,
"country": "Исландия",
"century": 20,
"description": "Прорыв в переговорах по ядерному разоружению.",
"participants": ["Горбачёв", "Рейган"],
"lat": 64.1466,
"lng": -21.9426,
"difficulty": "hard"
},
{
"id": "intifada_start_causes",
"title": "Причины начала Первой интифады",
"year": 1987,
"country": "Палестина",
"century": 20,
"description": "Недовольство оккупацией и условиями жизни.",
"participants": ["Арафат", "Рабин"],
"lat": 31.9500,
"lng": 35.2333,
"difficulty": "hard"
},
{
"id": "fall_of_berlin_wall_causes",
"title": "Причины падения Берлинской стены",
"year": 1989,
"country": "ГДР",
"century": 20,
"description": "Массовые протесты и ошибка в формулировке закона.",
"participants": ["Хонеккер", "Коль", "Горбачёв"],
"lat": 52.5200,
"lng": 13.4050,
"difficulty": "easy"
},
{
"id": "velvet_revolution_causes",
"title": "Причины Бархатной революции в Чехословакии",
"year": 1989,
"country": "Чехословакия",
"century": 20,
"description": "Недовольство коммунистическим режимом и влияние СССР.",
"participants": ["Гавел", "Якеш"],
"lat": 50.0755,
"lng": 14.4378,
"difficulty": "medium"
},
{
"id": "romanian_revolution_causes",
"title": "Причины Румынской революции",
"year": 1989,
"country": "Румыния",
"century": 20,
"description": "Тоталитаризм Чаушеску и экономический кризис.",
"participants": ["Чаушеску", "Илиеску"],
"lat": 44.4268,
"lng": 26.1025,
"difficulty": "medium"
},
{
"id": "malta_summit_outcomes",
"title": "Итоги Мальтийской встречи Горбачёва и Буша",
"year": 1989,
"country": "Мальта",
"century": 20,
"description": "Объявление окончания Холодной войны.",
"participants": ["Горбачёв", "Буш"],
"lat": 35.9375,
"lng": 14.3754,
"difficulty": "medium"
},
{
"id": "german_reunification_process",
"title": "Процесс воссоединения Германии",
"year": 1990,
"country": "Германия",
"century": 20,
"description": "Экономическое и политическое объединение ФРГ и ГДР.",
"participants": ["Коль", "Горбачёв", "Буш"],
"lat": 52.5200,
"lng": 13.4050,
"difficulty": "easy"
},
{
"id": "gulf_war_causes",
"title": "Причины войны в Персидском заливе",
"year": 1990,
"country": "Ирак",
"century": 20,
"description": "Вторжение Ирака в Кувейт.",
"participants": ["Буш", "Хусейн", "Чейни"],
"lat": 33.2232,
"lng": 43.6793,
"difficulty": "medium"
},
{
"id": "belavezha_accords_significance",
"title": "Значение Беловежских соглашений",
"year": 1991,
"country": "Беларусь",
"century": 20,
"description": "Юридическое оформление распада СССР.",
"participants": ["Ельцин", "Кравчук", "Шушкевич"],
"lat": 52.4333,
"lng": 26.1833,
"difficulty": "easy"
},
{
"id": "alma_ata_declaration_significance",
"title": "Значение Алма-Атинской декларации",
"year": 1991,
"country": "Казахстан",
"century": 20,
"description": "Окончательное оформление СНГ и признание независимости республик.",
"participants": ["Ельцин", "Назарбаев", "Кравчук"],
"lat": 43.2500,
"lng": 76.9167,
"difficulty": "medium"
},
{
"id": "first_russian_revolution_causes",
"title": "Причины Первой русской революции",
"year": 1905,
"country": "Россия",
"century": 20,
"description": "Поражение в войне с Японией и недовольство самодержавием.",
"participants": ["Гапон", "Николай II", "Ленин"],
"lat": 59.9343,
"lng": 30.3351,
"difficulty": "medium"
},
{
"id": "potemkin_mutiny_causes",
"title": "Причины восстания на «Потёмкине»",
"year": 1905,
"country": "Россия",
"century": 20,
"description": "Недовольство условиями службы и плохим питанием.",
"participants": ["Матюшенко", "Трепов"],
"lat": 44.6167,
"lng": 33.5250,
"difficulty": "hard"
},
{
"id": "october_general_strike_causes",
"title": "Причины Октябрьской всеобщей забастовки",
"year": 1905,
"country": "Россия",
"century": 20,
"description": "Требования демократических свобод и созыва Учредительного собрания.",
"participants": ["Ленин", "Троцкий", "Витте"],
"lat": 55.7558,
"lng": 37.6176,
"difficulty": "hard"
},
{
"id": "first_duma_elections_causes",
"title": "Причины выборов в Первую Государственную думу",
"year": 1906,
"country": "Россия",
"century": 20,
"description": "Обещания Октябрьского манифеста.",
"participants": ["Николай II", "Столыпин"],
"lat": 55.7558,
"lng": 37.6176,
"difficulty": "hard"
},
{
"id": "second_duma_elections_causes",
"title": "Причины выборов во Вторую Государственную думу",
"year": 1907,
"country": "Россия",
"century": 20,
"description": "Роспуск Первой думы и новые выборы.",
"participants": ["Николай II", "Столыпин"],
"lat": 55.7558,
"lng": 37.6176,
"difficulty": "hard"
},
{
"id": "third_duma_elections_causes",
"title": "Причины выборов в Третью Государственную думу",
"year": 1907,
"country": "Россия",
"century": 20,
"description": "Изменение избирательного закона в пользу консерваторов.",
"participants": ["Николай II", "Столыпин"],
"lat": 55.7558,
"lng": 37.6176,
"difficulty": "hard"
},
{
"id": "fourth_duma_elections_causes",
"title": "Причины выборов в Четвёртую Государственную думу",
"year": 1912,
"country": "Россия",
"century": 20,
"description": "Очередные выборы по истечении срока Третьей думы.",
"participants": ["Николай II", "Родзянко"],
"lat": 55.7558,
"lng": 37.6176,
"difficulty": "hard"
},
{
"id": "assassination_of_stolypin_causes",
"title": "Причины убийства П.А. Столыпина",
"year": 1911,
"country": "Россия",
"century": 20,
"description": "Революционная борьба и недовольство реформами.",
"participants": ["Столыпин", "Богров"],
"lat": 50.4501,
"lng": 30.5234,
"difficulty": "medium"
},
{
"id": "balkan_wars_causes",
"title": "Причины Балканских войн",
"year": 1912,
"country": "Сербия",
"century": 20,
"description": "Освобождение от Османской империи и территориальные споры.",
"participants": ["Никола Пашич", "Фердинанд I"],
"lat": 44.8167,
"lng": 20.4667,
"difficulty": "hard"
},
{
"id": "franz_ferdinand_assassination_causes",
"title": "Причины убийства эрцгерцога Франца Фердинанда",
"year": 1914,
"country": "Австро-Венгрия",
"century": 20,
"description": "Националистические настроения в Сербии.",
"participants": ["Гаврило Принцип", "Франц Фердинанд"],
"lat": 43.8563,
"lng": 18.4131,
"difficulty": "medium"
},
{
"id": "tannenberg_battle_causes",
"title": "Причины битвы при Танненберге",
"year": 1914,
"country": "Германия",
"century": 20,
"description": "Наступление русских армий в Восточной Пруссии.",
"participants": ["Самсонов", "Гинденбург", "Людендорф"],
"lat": 53.5000,
"lng": 20.5000,
"difficulty": "hard"
},
{
"id": "gallipoli_campaign_causes",
"title": "Причины Галлипольской операции",
"year": 1915,
"country": "Османская империя",
"century": 20,
"description": "Попытка открыть проливы для связи с Россией.",
"participants": ["Черчилль", "Энвер-паша"],
"lat": 40.4000,
"lng": 26.7000,
"difficulty": "hard"
},
{
"id": "lusitania_sinking_causes",
"title": "Причины гибели «Лузитании»",
"year": 1915,
"country": "Ирландия",
"century": 20,
"description": "Германская подводная война против торгового судоходства.",
"participants": ["Вильгельм II", "Уилсон"],
"lat": 51.4500,
"lng": -8.3000,
"difficulty": "medium"
},
{
"id": "verdun_battle_causes",
"title": "Причины битвы при Вердене",
"year": 1916,
"country": "Франция",
"century": 20,
"description": "План немцев «высушить Францию кровью».",
"participants": ["Петен", "Фалькенхайн"],
"lat": 49.1500,
"lng": 5.3000,
"difficulty": "medium"
},
{
"id": "somme_battle_causes",
"title": "Причины битвы на Сомме",
"year": 1916,
"country": "Франция",
"century": 20,
"description": "Согласованное наступление союзников на Западном фронте.",
"participants": ["Хоуг", "Фош"],
"lat": 49.9000,
"lng": 2.5000,
"difficulty": "medium"
},
{
"id": "february_revolution_causes",
"title": "Причины Февральской революции",
"year": 1917,
"country": "Россия",
"century": 20,
"description": "Военные неудачи, голод и недовольство монархией.",
"participants": ["Керенский", "Николай II", "Ленин"],
"lat": 59.9343,
"lng": 30.3351,
"difficulty": "medium"
},
{
"id": "april_theses_causes",
"title": "Причины появления Апрельских тезисов Ленина",
"year": 1917,
"country": "Россия",
"century": 20,
"description": "Возвращение Ленина из эмиграции и анализ ситуации.",
"participants": ["Ленин", "Троцкий"],
"lat": 59.9343,
"lng": 30.3351,
"difficulty": "hard"
},
{
"id": "july_days_causes",
"title": "Причины Июльских дней",
"year": 1917,
"country": "Россия",
"century": 20,
"description": "Недовольство продолжением войны и политикой Временного правительства.",
"participants": ["Ленин", "Керенский"],
"lat": 59.9343,
"lng": 30.3351,
"difficulty": "hard"
},
{
"id": "kornilov_affair_causes",
"title": "Причины Корниловщины",
"year": 1917,
"country": "Россия",
"century": 20,
"description": "Стремление установить военную диктатуру для борьбы с большевиками.",
"participants": ["Корнилов", "Керенский", "Ленин"],
"lat": 55.7558,
"lng": 37.6176,
"difficulty": "hard"
},
{
"id": "brest_lithuania_treaty_causes",
"title": "Причины Брестского мира",
"year": 1918,
"country": "СССР",
"century": 20,
"description": "Необходимость выхода из войны для укрепления власти большевиков.",
"participants": ["Троцкий", "Гофман"],
"lat": 52.0975,
"lng": 23.6850,
"difficulty": "medium"
},
{
"id": "red_terror_causes",
"title": "Причины Красного террора",
"year": 1918,
"country": "СССР",
"century": 20,
"description": "Ответ на покушения и гражданскую войну.",
"participants": ["Дзержинский", "Ленин"],
"lat": 55.7558,
"lng": 37.6176,
"difficulty": "hard"
},
{
"id": "white_army_formation_causes",
"title": "Причины формирования Белой армии",
"year": 1918,
"country": "Россия",
"century": 20,
"description": "Сопротивление большевикам и желание восстановить порядок.",
"participants": ["Деникин", "Колчак", "Юденич"],
"lat": 45.0000,
"lng": 42.0000,
"difficulty": "medium"
},
{
"id": "war_communism_causes",
"title": "Причины политики военного коммунизма",
"year": 1918,
"country": "СССР",
"century": 20,
"description": "Необходимость обеспечения Красной армии в условиях войны.",
"participants": ["Ленин", "Троцкий"],
"lat": 55.7558,
"lng": 37.6176,
"difficulty": "hard"
},
{
"id": "polish_soviet_war_causes",
"title": "Причины Польско-советской войны",
"year": 1919,
"country": "Польша",
"century": 20,
"description": "Борьба за границы после распада Российской империи.",
"participants": ["Пилсудский", "Тухачевский"],
"lat": 52.2297,
"lng": 21.0122,
"difficulty": "hard"
},
{
"id": "new_economic_policy_causes",
"title": "Причины Новой экономической политики",
"year": 1921,
"country": "СССР",
"century": 20,
"description": "Экономический кризис и крестьянские восстания.",
"participants": ["Ленин", "Бухарин"],
"lat": 55.7558,
"lng": 37.6176,
"difficulty": "medium"
},
{
"id": "lenin_death_causes",
"title": "Причины смерти Владимира Ленина",
"year": 1924,
"country": "СССР",
"century": 20,
"description": "Болезнь, вызванная покушением и перенапряжением.",
"participants": ["Ленин", "Сталин", "Троцкий"],
"lat": 55.7558,
"lng": 37.6176,
"difficulty": "easy"
},
{
"id": "trotsky_exile_causes",
"title": "Причины изгнания Льва Троцкого",
"year": 1929,
"country": "СССР",
"century": 20,
"description": "Поражение в борьбе за власть со Сталиным.",
"participants": ["Троцкий", "Сталин"],
"lat": 55.7558,
"lng": 37.6176,
"difficulty": "hard"
},
{
"id": "first_five_year_plan_causes",
"title": "Причины первой пятилетки",
"year": 1928,
"country": "СССР",
"century": 20,
"description": "Желание ускоренной индустриализации и подготовки к войне.",
"participants": ["Сталин", "Куйбышев"],
"lat": 55.7558,
"lng": 37.6176,
"difficulty": "medium"
},
{
"id": "collectivization_causes",
"title": "Причины коллективизации",
"year": 1929,
"country": "СССР",
"century": 20,
"description": "Необходимость контроля над сельским хозяйством и хлебозаготовками.",
"participants": ["Сталин", "Молотов"],
"lat": 55.7558,
"lng": 37.6176,
"difficulty": "hard"
},
{
"id": "dekulakization_causes",
"title": "Причины раскулачивания",
"year": 1930,
"country": "СССР",
"century": 20,
"description": "Борьба с «классовым врагом» в деревне.",
"participants": ["Сталин", "Молотов"],
"lat": 55.7558,
"lng": 37.6176,
"difficulty": "hard"
},